[
  {
    "id": "bienvenue-ferme-acquaviva-mathieu",
    "name": "ACQUAVIVA Mathieu",
    "network": "Bienvenue à la ferme",
    "address": "Calacuccia centre, 20224, Calacuccia",
    "postalCode": "20224",
    "city": "Calacuccia",
    "region": "Haute-Corse (20)",
    "lat": 42.335907,
    "lng": 9.018704,
    "website": "http://www.acquaviva-corse.fr",
    "source": "Fiches Bienvenue à la ferme fournies par Label Vanlife"
  },
  {
    "id": "bienvenue-ferme-aire-naturelle-de-camping-la-folie",
    "name": "Aire naturelle de camping la Folie",
    "network": "Bienvenue à la ferme",
    "address": "1500 route de robion, Lagnes, 84800, Lagnes",
    "postalCode": "84800",
    "city": "Lagnes",
    "region": "Vaucluse (84)",
    "lat": 43.880217,
    "lng": 5.106141,
    "website": "http://airenaturelle-lafolie.fr",
    "source": "Fiches Bienvenue à la ferme fournies par Label Vanlife"
  },
  {
    "id": "bienvenue-ferme-aire-naturelle-du-grand-pre",
    "name": "Aire Naturelle du Grand Pré",
    "network": "Bienvenue à la ferme",
    "address": "316 route de Pousseau, Pousseau, 17600, Médis",
    "postalCode": "17600",
    "city": "Médis",
    "region": "Charente-Maritime (17)",
    "lat": 45.644933230303,
    "lng": -0.99606513977051,
    "website": "http://www.legrandpre.eu",
    "source": "Fiches Bienvenue à la ferme fournies par Label Vanlife"
  },
  {
    "id": "bienvenue-ferme-aire-naturelle-l-ilot",
    "name": "Aire naturelle l'Ilot",
    "network": "Bienvenue à la ferme",
    "address": "Route de l'Ilot, 17570, Saint-Augustin",
    "postalCode": "17570",
    "city": "Saint-Augustin",
    "region": "Charente-Maritime (17)",
    "lat": 45.710125743976,
    "lng": -1.2255987524986,
    "website": "http://airenaturellelilot.fr",
    "source": "Fiches Bienvenue à la ferme fournies par Label Vanlife"
  },
  {
    "id": "bienvenue-ferme-ne-et-carotte",
    "name": "╢ne et Carotte",
    "network": "Bienvenue à la ferme",
    "address": "les Jarosses, 87150, Champagnac-la-Rivière",
    "postalCode": "87150",
    "city": "Champagnac-la-Rivière",
    "region": "Haute-Vienne (87)",
    "lat": 45.733529177296,
    "lng": 0.93182015436469,
    "website": null,
    "source": "Fiches Bienvenue à la ferme fournies par Label Vanlife"
  },
  {
    "id": "bienvenue-ferme-au-gre-du-vent",
    "name": "Au Gré du Vent",
    "network": "Bienvenue à la ferme",
    "address": "225, route de Pis, 32120, Taybosc",
    "postalCode": "32120",
    "city": "Taybosc",
    "region": "Gers (32)",
    "lat": 43.78302002,
    "lng": 0.73439002,
    "website": "http://www.camping-greduvent.fr/",
    "source": "Fiches Bienvenue à la ferme fournies par Label Vanlife"
  },
  {
    "id": "bienvenue-ferme-au-verger-saint-joseph-boutique-sarah-et-nicolas",
    "name": "Au Verger Saint Joseph _ Boutique Sarah et Nicolas",
    "network": "Bienvenue à la ferme",
    "address": "206 Allée de Verdun, 06450, Saint-Martin-Vésubie",
    "postalCode": "06450",
    "city": "Saint-Martin-Vésubie",
    "region": "Alpes-Maritimes (06)",
    "lat": 44.071316125477,
    "lng": 7.2543883154137,
    "website": null,
    "source": "Fiches Bienvenue à la ferme fournies par Label Vanlife"
  },
  {
    "id": "bienvenue-ferme-au-vieux-moulin",
    "name": "Au Vieux Moulin",
    "network": "Bienvenue à la ferme",
    "address": "Kerguilan, 29360, Clohars-Carnoët",
    "postalCode": "29360",
    "city": "Clohars-Carnoët",
    "region": "Finistère (29)",
    "lat": 47.785299932628,
    "lng": -3.5713089522706,
    "website": null,
    "source": "Fiches Bienvenue à la ferme fournies par Label Vanlife"
  },
  {
    "id": "bienvenue-ferme-aux-jaubertins",
    "name": "Aux Jaubertins",
    "network": "Bienvenue à la ferme",
    "address": "Jaubertin, 24300, Hautefaye",
    "postalCode": "24300",
    "city": "Hautefaye",
    "region": "Dordogne (24)",
    "lat": 45.544771380787,
    "lng": 0.49720913171768,
    "website": "https://campingalaferme.wixsite.com/lesjaubertins",
    "source": "Fiches Bienvenue à la ferme fournies par Label Vanlife"
  },
  {
    "id": "bienvenue-ferme-aux-sabots-de-vent",
    "name": "AUX SABOTS DE VENT",
    "network": "Bienvenue à la ferme",
    "address": "1 rue des lavoirs, Hameau de ROCHE RD 983, 08130, Chuffilly-Roche",
    "postalCode": "08130",
    "city": "Chuffilly-Roche",
    "region": "Ardennes (08)",
    "lat": 49.449378780418,
    "lng": 4.6073913574219,
    "website": "http://www.aux-sabots-de-vent.ffe.com",
    "source": "Fiches Bienvenue à la ferme fournies par Label Vanlife"
  },
  {
    "id": "bienvenue-ferme-bio-cochon",
    "name": "Bio Cochon",
    "network": "Bienvenue à la ferme",
    "address": "Le Bouée, 56430, Mauron",
    "postalCode": "56430",
    "city": "Mauron",
    "region": "Morbihan (56)",
    "lat": 48.078997888456,
    "lng": -2.3030304908752,
    "website": "http://www.biocochon.com",
    "source": "Fiches Bienvenue à la ferme fournies par Label Vanlife"
  },
  {
    "id": "bienvenue-ferme-bio-verdon",
    "name": "Bio Verdon",
    "network": "Bienvenue à la ferme",
    "address": "Boulogne, 04120, La Palud-sur-Verdon",
    "postalCode": "04120",
    "city": "La Palud-sur-Verdon",
    "region": "Alpes-de-Haute-Provence (04)",
    "lat": 43.775808,
    "lng": 6.349851,
    "website": "http://www.camping-bio-verdon.blogspot.fr",
    "source": "Fiches Bienvenue à la ferme fournies par Label Vanlife"
  },
  {
    "id": "bienvenue-ferme-borie-de-bar",
    "name": "Borie de Bar",
    "network": "Bienvenue à la ferme",
    "address": "Borie de Bar, 24200, Vitrac",
    "postalCode": "24200",
    "city": "Vitrac",
    "region": "Dordogne (24)",
    "lat": 44.830679,
    "lng": 1.226197,
    "website": "http://www.location-chambres-sarlat.com",
    "source": "Fiches Bienvenue à la ferme fournies par Label Vanlife"
  },
  {
    "id": "bienvenue-ferme-botali",
    "name": "BOTALI",
    "network": "Bienvenue à la ferme",
    "address": "Ld Giustignana, 20230, Linguizzetta",
    "postalCode": "20230",
    "city": "Linguizzetta",
    "region": "Haute-Corse (20)",
    "lat": 42.22535,
    "lng": 9.53243,
    "website": null,
    "source": "Fiches Bienvenue à la ferme fournies par Label Vanlife"
  },
  {
    "id": "bienvenue-ferme-busi",
    "name": "BUSI",
    "network": "Bienvenue à la ferme",
    "address": "1460 route de Valavoire, 04250, Clamensane",
    "postalCode": "04250",
    "city": "Clamensane",
    "region": "Alpes-de-Haute-Provence (04)",
    "lat": 44.306683,
    "lng": 6.056152,
    "website": null,
    "source": "Fiches Bienvenue à la ferme fournies par Label Vanlife"
  },
  {
    "id": "bienvenue-ferme-camping-a-la-ferme-carrique",
    "name": "Camping à la ferme Carrique",
    "network": "Bienvenue à la ferme",
    "address": "Ferme Carrique, 64470, Alos-Sibas-Abense",
    "postalCode": "64470",
    "city": "Alos-Sibas-Abense",
    "region": "Pyrénées-Atlantiques (64)",
    "lat": 43.11014,
    "lng": -0.881835,
    "website": "http://www.camping-carrique.com",
    "source": "Fiches Bienvenue à la ferme fournies par Label Vanlife"
  },
  {
    "id": "bienvenue-ferme-camping-a-la-ferme-de-grange-neuve",
    "name": "CAMPING A LA FERME DE GRANGE NEUVE",
    "network": "Bienvenue à la ferme",
    "address": "200 Chemin de la Tour, 26460, Mornans",
    "postalCode": "26460",
    "city": "Mornans",
    "region": "Drôme (26)",
    "lat": 44.607220303858,
    "lng": 5.1308226583205,
    "website": "https://www.campingmornans.com/",
    "source": "Fiches Bienvenue à la ferme fournies par Label Vanlife"
  },
  {
    "id": "bienvenue-ferme-camping-a-la-ferme-de-la-neuve-rue",
    "name": "Camping à la ferme de la Neuve Rue",
    "network": "Bienvenue à la ferme",
    "address": "8 LA NEUVE RUE, 60480, Oursel-Maison",
    "postalCode": "60480",
    "city": "Oursel-Maison",
    "region": "Oise (60)",
    "lat": 49.591438320384,
    "lng": 2.1624847501516,
    "website": null,
    "source": "Fiches Bienvenue à la ferme fournies par Label Vanlife"
  },
  {
    "id": "bienvenue-ferme-camping-a-la-ferme-labau",
    "name": "Camping à la ferme Labau",
    "network": "Bienvenue à la ferme",
    "address": "Labau, 11250, Ladern-sur-Lauquet",
    "postalCode": "11250",
    "city": "Ladern-sur-Lauquet",
    "region": "Aude (11)",
    "lat": 43.099282,
    "lng": 2.379535,
    "website": "http://campingdelabau.free.fr",
    "source": "Fiches Bienvenue à la ferme fournies par Label Vanlife"
  },
  {
    "id": "bienvenue-ferme-camping-a-la-ferme-roumavagi",
    "name": "Camping à la Ferme Roumavagi",
    "network": "Bienvenue à la ferme",
    "address": "Chemin de Lunés, 1369A, \"Le Vabre\", 84160, Cucuron",
    "postalCode": "84160",
    "city": "Cucuron",
    "region": "Vaucluse (84)",
    "lat": 43.771050085823,
    "lng": 5.4735679626465,
    "website": "http://campingroumavagi.blogspot.com/",
    "source": "Fiches Bienvenue à la ferme fournies par Label Vanlife"
  },
  {
    "id": "bienvenue-ferme-camping-aici-sem-pla",
    "name": "CAMPING Aici Sem pla",
    "network": "Bienvenue à la ferme",
    "address": "2855 route de Montricoux, \"labadio\", \"Labadio\", 82800, Vaïssac",
    "postalCode": "82800",
    "city": "Vaïssac",
    "region": "Tarn-et-Garonne (82)",
    "lat": 44.050151510007,
    "lng": 1.5931034088135,
    "website": "http://www.aicisempla.com",
    "source": "Fiches Bienvenue à la ferme fournies par Label Vanlife"
  },
  {
    "id": "bienvenue-ferme-camping-de-la-haute-sioule",
    "name": "CAMPING DE LA HAUTE SIOULE",
    "network": "Bienvenue à la ferme",
    "address": "Le Bourg, 63210, Saint-Bonnet-près-Orcival",
    "postalCode": "63210",
    "city": "Saint-Bonnet-près-Orcival",
    "region": "Puy-de-Dôme (63)",
    "lat": 45.708429746298,
    "lng": 2.8610587120056,
    "website": "http://www.camping-auvergne.info",
    "source": "Fiches Bienvenue à la ferme fournies par Label Vanlife"
  },
  {
    "id": "bienvenue-ferme-camping-de-la-noyeraie",
    "name": "Camping de la Noyeraie",
    "network": "Bienvenue à la ferme",
    "address": "2, route de la Gorgère, la Noyeraie, 87800, Saint-Hilaire-les-Places",
    "postalCode": "87800",
    "city": "Saint-Hilaire-les-Places",
    "region": "Haute-Vienne (87)",
    "lat": 45.608153421812,
    "lng": 1.1426639556885,
    "website": "http://www.lanoyeraie.fr",
    "source": "Fiches Bienvenue à la ferme fournies par Label Vanlife"
  },
  {
    "id": "bienvenue-ferme-camping-de-la-salle",
    "name": "Camping de la Salle",
    "network": "Bienvenue à la ferme",
    "address": "La Salle, 37220, Avon-les-Roches",
    "postalCode": "37220",
    "city": "Avon-les-Roches",
    "region": "Indre-et-Loire (37)",
    "lat": 47.1575076,
    "lng": 0.4454121,
    "website": null,
    "source": "Fiches Bienvenue à la ferme fournies par Label Vanlife"
  },
  {
    "id": "bienvenue-ferme-camping-de-leanou",
    "name": "CAMPING DE LEANOU",
    "network": "Bienvenue à la ferme",
    "address": "Hent Kerler, Léanou, 29170, Fouesnant",
    "postalCode": "29170",
    "city": "Fouesnant",
    "region": "Finistère (29)",
    "lat": 47.865781636618,
    "lng": -4.0514445304871,
    "website": "http://www.camping-leanou.com",
    "source": "Fiches Bienvenue à la ferme fournies par Label Vanlife"
  },
  {
    "id": "bienvenue-ferme-camping-de-l-esperance",
    "name": "Camping de l'Espérance",
    "network": "Bienvenue à la ferme",
    "address": "3 rue des Pachis, 55220, Villers-sur-Meuse",
    "postalCode": "55220",
    "city": "Villers-sur-Meuse",
    "region": "Meuse (55)",
    "lat": 49.019373708445,
    "lng": 5.4203066825867,
    "website": "http://camping-esperance.wifeo.com",
    "source": "Fiches Bienvenue à la ferme fournies par Label Vanlife"
  },
  {
    "id": "bienvenue-ferme-camping-de-paraud",
    "name": "Camping de Paraud",
    "network": "Bienvenue à la ferme",
    "address": "317 hameau de Paraud, 07000, Flaviac",
    "postalCode": "07000",
    "city": "Flaviac",
    "region": "Ardèche (07)",
    "lat": 44.738937563995,
    "lng": 4.6599519252777,
    "website": null,
    "source": "Fiches Bienvenue à la ferme fournies par Label Vanlife"
  },
  {
    "id": "bienvenue-ferme-camping-du-chateau-de-lordat",
    "name": "Camping du Château de Lordat",
    "network": "Bienvenue à la ferme",
    "address": "Berbescou, 09250, Lordat",
    "postalCode": "09250",
    "city": "Lordat",
    "region": "Ariège (09)",
    "lat": 42.7758649,
    "lng": 1.7513598,
    "website": "http://www.fermeduberbescou.fr",
    "source": "Fiches Bienvenue à la ferme fournies par Label Vanlife"
  },
  {
    "id": "bienvenue-ferme-camping-du-domaine-de-lavaux",
    "name": "Camping du domaine de Lavaux",
    "network": "Bienvenue à la ferme",
    "address": "Domaine de Lavaux, 63950, Saint-Sauves-d'Auvergne",
    "postalCode": "63950",
    "city": "Saint-Sauves-d'Auvergne",
    "region": "Puy-de-Dôme (63)",
    "lat": 45.616679001782,
    "lng": 2.6917362213135,
    "website": "http://www.domainedelavaux.com",
    "source": "Fiches Bienvenue à la ferme fournies par Label Vanlife"
  },
  {
    "id": "bienvenue-ferme-camping-du-lac-de-la-laure",
    "name": "Camping du Lac de la Laure",
    "network": "Bienvenue à la ferme",
    "address": "Savignol, 09100, Unzent",
    "postalCode": "09100",
    "city": "Unzent",
    "region": "Ariège (09)",
    "lat": 43.170991,
    "lng": 1.525063,
    "website": "https://www.campingdelalaure-unzent.fr/",
    "source": "Fiches Bienvenue à la ferme fournies par Label Vanlife"
  },
  {
    "id": "bienvenue-ferme-camping-la-ferme-le-chateau-de-guerrand",
    "name": "Camping La ferme le Château de Guerrand",
    "network": "Bienvenue à la ferme",
    "address": "Rue du Stade, L'Orangerie - Le Guerrand, 29620, Plouégat-Guérand",
    "postalCode": "29620",
    "city": "Plouégat-Guérand",
    "region": "Finistère (29)",
    "lat": 48.628,
    "lng": -3.688,
    "website": null,
    "source": "Fiches Bienvenue à la ferme fournies par Label Vanlife"
  },
  {
    "id": "bienvenue-ferme-camping-la-riviere",
    "name": "Camping La Rivière",
    "network": "Bienvenue à la ferme",
    "address": "La Rivière, La Bastide l'évêque, 12200, Le Bas Ségala",
    "postalCode": "12200",
    "city": "Le Bas Ségala",
    "region": "Aveyron (12)",
    "lat": 44.293537646765,
    "lng": 2.150981426239,
    "website": "http://www.villefranche-camping.com",
    "source": "Fiches Bienvenue à la ferme fournies par Label Vanlife"
  },
  {
    "id": "bienvenue-ferme-camping-le-goutilier",
    "name": "Camping Le Goutilier",
    "network": "Bienvenue à la ferme",
    "address": "Sainte-Marie, 63120, Aubusson-d'Auvergne",
    "postalCode": "63120",
    "city": "Aubusson-d'Auvergne",
    "region": "Puy-de-Dôme (63)",
    "lat": 45.755304,
    "lng": 3.592333,
    "website": "http://www.camping-aubusson.fr",
    "source": "Fiches Bienvenue à la ferme fournies par Label Vanlife"
  },
  {
    "id": "bienvenue-ferme-camping-le-lac-rouge",
    "name": "Camping Le Lac Rouge",
    "network": "Bienvenue à la ferme",
    "address": "Camping Le Lac Rouge, Lhom, 46200, Lachapelle-Auzac",
    "postalCode": "46200",
    "city": "Lachapelle-Auzac",
    "region": "Lot (46)",
    "lat": 44.951727134108,
    "lng": 1.4658077775879,
    "website": null,
    "source": "Fiches Bienvenue à la ferme fournies par Label Vanlife"
  },
  {
    "id": "bienvenue-ferme-camping-les-acacias",
    "name": "CAMPING LES ACACIAS",
    "network": "Bienvenue à la ferme",
    "address": "500 ROUTE DU SAUT, 07110, Uzer",
    "postalCode": "07110",
    "city": "Uzer",
    "region": "Ardèche (07)",
    "lat": 44.52561672047,
    "lng": 4.328032508347,
    "website": "http://www.camping-lesacacias.com",
    "source": "Fiches Bienvenue à la ferme fournies par Label Vanlife"
  },
  {
    "id": "bienvenue-ferme-camping-les-lebres",
    "name": "CAMPING LES LEBRES",
    "network": "Bienvenue à la ferme",
    "address": "les lebres, 07460, Beaulieu",
    "postalCode": "07460",
    "city": "Beaulieu",
    "region": "Ardèche (07)",
    "lat": 44.359945,
    "lng": 4.2311,
    "website": null,
    "source": "Fiches Bienvenue à la ferme fournies par Label Vanlife"
  },
  {
    "id": "bienvenue-ferme-camping-les-noyers",
    "name": "Camping les Noyers",
    "network": "Bienvenue à la ferme",
    "address": "4a, rue des Romains, 68750, Bergheim",
    "postalCode": "68750",
    "city": "Bergheim",
    "region": "Haut-Rhin (68)",
    "lat": 48.204186070486,
    "lng": 7.3714345693588,
    "website": "http://www.facebook.com/campinglesnoyers",
    "source": "Fiches Bienvenue à la ferme fournies par Label Vanlife"
  },
  {
    "id": "bienvenue-ferme-camping-les-trois-pierres",
    "name": "Camping les Trois Pierres",
    "network": "Bienvenue à la ferme",
    "address": "Les trois pierres, 15300, Albepierre-Bredons",
    "postalCode": "15300",
    "city": "Albepierre-Bredons",
    "region": "Cantal (15)",
    "lat": 45.073471,
    "lng": 2.83305,
    "website": null,
    "source": "Fiches Bienvenue à la ferme fournies par Label Vanlife"
  },
  {
    "id": "bienvenue-ferme-camping-nature-ferme-pedagogique-de-prunay",
    "name": "Camping nature Ferme Pédagogique de Prunay",
    "network": "Bienvenue à la ferme",
    "address": "Camping nature Ferme Pédagogique de Prunay, 41150, Valloire-sur-Cisse",
    "postalCode": "41150",
    "city": "Valloire-sur-Cisse",
    "region": "Loir-et-Cher (41)",
    "lat": 47.543154,
    "lng": 1.15797,
    "website": "http://www.prunay.fr",
    "source": "Fiches Bienvenue à la ferme fournies par Label Vanlife"
  },
  {
    "id": "bienvenue-ferme-camping-serra-piana",
    "name": "CAMPING SERRA PIANA",
    "network": "Bienvenue à la ferme",
    "address": "Serra Piana, 20230, Linguizzetta",
    "postalCode": "20230",
    "city": "Linguizzetta",
    "region": "Haute-Corse (20)",
    "lat": 42.261049162114,
    "lng": 9.4921875,
    "website": null,
    "source": "Fiches Bienvenue à la ferme fournies par Label Vanlife"
  },
  {
    "id": "bienvenue-ferme-camping-vanille-wehoune",
    "name": "Camping Vanille Wehoune",
    "network": "Bienvenue à la ferme",
    "address": "Tribu de Gadji, 98832, Ile des Pins",
    "postalCode": "98832",
    "city": "Ile des Pins",
    "region": "Nouvelle-Calédonie (98)",
    "lat": -22.546993,
    "lng": 167.432265,
    "website": null,
    "source": "Fiches Bienvenue à la ferme fournies par Label Vanlife"
  },
  {
    "id": "bienvenue-ferme-chez-alcide-et-nicole",
    "name": "Chez Alcide et Nicole",
    "network": "Bienvenue à la ferme",
    "address": "BP 170 98850 KOUMAC, KOUMAC, 98850, Koumac",
    "postalCode": "98850",
    "city": "Koumac",
    "region": "Nouvelle-Calédonie (98)",
    "lat": -20.465503441728,
    "lng": 164.32598948391,
    "website": null,
    "source": "Fiches Bienvenue à la ferme fournies par Label Vanlife"
  },
  {
    "id": "bienvenue-ferme-criniere-au-vent",
    "name": "Crinière au Vent",
    "network": "Bienvenue à la ferme",
    "address": "Bouillon, 47340, Monbalen",
    "postalCode": "47340",
    "city": "Monbalen",
    "region": "Lot-et-Garonne (47)",
    "lat": 44.324339298001,
    "lng": 0.74535369873047,
    "website": "http://www.centre-equestre-47.com",
    "source": "Fiches Bienvenue à la ferme fournies par Label Vanlife"
  },
  {
    "id": "bienvenue-ferme-de-l-abeille-au-fruit-le-camping-du-verger",
    "name": "De l'Abeille au fruit & Le Camping du Verger",
    "network": "Bienvenue à la ferme",
    "address": "11 chemin de Wailly, 62170, Campigneulles-les-Grandes",
    "postalCode": "62170",
    "city": "Campigneulles-les-Grandes",
    "region": "Pas-de-Calais (62)",
    "lat": 50.431525171207,
    "lng": 1.7149725267639,
    "website": "https://www.facebook.com/Delabeilleaufruit",
    "source": "Fiches Bienvenue à la ferme fournies par Label Vanlife"
  },
  {
    "id": "bienvenue-ferme-domaine-coccinelle",
    "name": "Domaine Coccinelle",
    "network": "Bienvenue à la ferme",
    "address": "La Creu Verda, 66300, Banyuls-dels-Aspres",
    "postalCode": "66300",
    "city": "Banyuls-dels-Aspres",
    "region": "Pyrénées-Orientales (66)",
    "lat": 42.557221538011,
    "lng": 2.8619813919067,
    "website": "http://coccinelle66.blogspot.fr/",
    "source": "Fiches Bienvenue à la ferme fournies par Label Vanlife"
  },
  {
    "id": "bienvenue-ferme-domaine-de-christin",
    "name": "Domaine de Christin",
    "network": "Bienvenue à la ferme",
    "address": "BP 56, route d'Aubais, 30250, Junas",
    "postalCode": "30250",
    "city": "Junas",
    "region": "Gard (30)",
    "lat": 43.759471599837,
    "lng": 4.0995311737061,
    "website": "http://www.domaine-de-christin.fr",
    "source": "Fiches Bienvenue à la ferme fournies par Label Vanlife"
  },
  {
    "id": "bienvenue-ferme-domaine-de-la-capelle",
    "name": "Domaine de la Capelle",
    "network": "Bienvenue à la ferme",
    "address": "535 RD 116, Domaine de la Capelle, 11400, Saint-Martin-Lalande",
    "postalCode": "11400",
    "city": "Saint-Martin-Lalande",
    "region": "Aude (11)",
    "lat": 43.317316,
    "lng": 2.013994,
    "website": "http://www.domaine-la-capelle.fr/",
    "source": "Fiches Bienvenue à la ferme fournies par Label Vanlife"
  },
  {
    "id": "bienvenue-ferme-domaine-de-pelican",
    "name": "Domaine de Pélican",
    "network": "Bienvenue à la ferme",
    "address": "34150, Gignac",
    "postalCode": "34150",
    "city": "Gignac",
    "region": "Hérault (34)",
    "lat": 43.623911045437,
    "lng": 3.5681190495961,
    "website": "http://www.domainedepelican.fr",
    "source": "Fiches Bienvenue à la ferme fournies par Label Vanlife"
  },
  {
    "id": "bienvenue-ferme-domaine-du-bien-vivre",
    "name": "Domaine du Bien Vivre",
    "network": "Bienvenue à la ferme",
    "address": "15 route du Petit Village, La pouillarderie, 41140, Saint-Romain-sur-Cher",
    "postalCode": "41140",
    "city": "Saint-Romain-sur-Cher",
    "region": "Loir-et-Cher (41)",
    "lat": 47.323631833938,
    "lng": 1.3686975238037,
    "website": "http://www.domainedubienvivre.fr",
    "source": "Fiches Bienvenue à la ferme fournies par Label Vanlife"
  },
  {
    "id": "bienvenue-ferme-earl-des-saturnins",
    "name": "EARL des Saturnins",
    "network": "Bienvenue à la ferme",
    "address": "14 Rue de l'Orme, 55190, Méligny-le-Grand",
    "postalCode": "55190",
    "city": "Méligny-le-Grand",
    "region": "Meuse (55)",
    "lat": 48.675965,
    "lng": 5.490299,
    "website": "https://earldessaturnins.wixsite.com/saturnins",
    "source": "Fiches Bienvenue à la ferme fournies par Label Vanlife"
  },
  {
    "id": "bienvenue-ferme-earl-ferme-d-alzetta",
    "name": "EARL Ferme d'ALZETTA",
    "network": "Bienvenue à la ferme",
    "address": "route de Mela Muratello, Vaccile del Monte, 20137, Porto-Vecchio",
    "postalCode": "20137",
    "city": "Porto-Vecchio",
    "region": "Corse-du-Sud (20)",
    "lat": 41.580578,
    "lng": 9.201529,
    "website": "http://www.fermedalzetta.com",
    "source": "Fiches Bienvenue à la ferme fournies par Label Vanlife"
  },
  {
    "id": "bienvenue-ferme-earl-vitori",
    "name": "EARL Vitori",
    "network": "Bienvenue à la ferme",
    "address": "2820 RN7, 83910, Pourrières",
    "postalCode": "83910",
    "city": "Pourrières",
    "region": "Var (83)",
    "lat": 43.4842,
    "lng": 5.73496,
    "website": "http://www.domaine-vitori.com",
    "source": "Fiches Bienvenue à la ferme fournies par Label Vanlife"
  },
  {
    "id": "bienvenue-ferme-ecole-d-attelage-de-l-aubrac",
    "name": "Ecole d'attelage de l'Aubrac",
    "network": "Bienvenue à la ferme",
    "address": "Les Mazucs, 12420, Cantoin",
    "postalCode": "12420",
    "city": "Cantoin",
    "region": "Aveyron (12)",
    "lat": 44.837968399943,
    "lng": 2.8486695885658,
    "website": "http://www.ecole-attelage-aubrac.fr",
    "source": "Fiches Bienvenue à la ferme fournies par Label Vanlife"
  },
  {
    "id": "bienvenue-ferme-ecurie-leseigneur",
    "name": "Ecurie Leseigneur",
    "network": "Bienvenue à la ferme",
    "address": "10 route les mares, 50250, La Haye",
    "postalCode": "50250",
    "city": "La Haye",
    "region": "Manche (50)",
    "lat": 49.305403903612,
    "lng": -1.569786965847,
    "website": "https://www.ecurie-leseigneur-camping-gite.com",
    "source": "Fiches Bienvenue à la ferme fournies par Label Vanlife"
  },
  {
    "id": "bienvenue-ferme-en-saubis",
    "name": "En Saubis",
    "network": "Bienvenue à la ferme",
    "address": "En Saubis, 32390, Montestruc-sur-Gers",
    "postalCode": "32390",
    "city": "Montestruc-sur-Gers",
    "region": "Gers (32)",
    "lat": 43.7929109,
    "lng": 0.643085,
    "website": "http://www.chambresdhotesgers.com",
    "source": "Fiches Bienvenue à la ferme fournies par Label Vanlife"
  },
  {
    "id": "bienvenue-ferme-espace-nature-au-creux-du-chene",
    "name": "Espace nature au Creux du Chêne",
    "network": "Bienvenue à la ferme",
    "address": "16 Bis Grande Rue, 77440, Tancrou",
    "postalCode": "77440",
    "city": "Tancrou",
    "region": "Seine-et-Marne (77)",
    "lat": 48.99636908029,
    "lng": 3.042356371443,
    "website": "https://www.camping-insolite77.com",
    "source": "Fiches Bienvenue à la ferme fournies par Label Vanlife"
  },
  {
    "id": "bienvenue-ferme-ferme-auberge-de-pierrat",
    "name": "Ferme Auberge de Pierrat",
    "network": "Bienvenue à la ferme",
    "address": "Vallée de Pierrat BP 170, Pierrat, 98880, La Foa",
    "postalCode": "98880",
    "city": "La Foa",
    "region": "Nouvelle-Calédonie (98)",
    "lat": -21.690419970453,
    "lng": 165.88328719139,
    "website": null,
    "source": "Fiches Bienvenue à la ferme fournies par Label Vanlife"
  },
  {
    "id": "bienvenue-ferme-ferme-bres",
    "name": "FERME BRES",
    "network": "Bienvenue à la ferme",
    "address": "FERME BRES, Pied de Vaux, 26110, Nyons",
    "postalCode": "26110",
    "city": "Nyons",
    "region": "Drôme (26)",
    "lat": 44.373256,
    "lng": 5.133488,
    "website": "http://www.fermebres.fr",
    "source": "Fiches Bienvenue à la ferme fournies par Label Vanlife"
  },
  {
    "id": "bienvenue-ferme-ferme-d-alpage-de-la-petite-echelle",
    "name": "Ferme d'alpage de la Petite Echelle",
    "network": "Bienvenue à la ferme",
    "address": "La Petite Echelle, 25370, Rochejean",
    "postalCode": "25370",
    "city": "Rochejean",
    "region": "Doubs (25)",
    "lat": 46.711228,
    "lng": 6.332941,
    "website": "http://www.lapetiteechellejura.site",
    "source": "Fiches Bienvenue à la ferme fournies par Label Vanlife"
  },
  {
    "id": "bienvenue-ferme-ferme-de-bouzan",
    "name": "Ferme de Bouzan",
    "network": "Bienvenue à la ferme",
    "address": "Ferme de Bouzan, Bouzan, 46150, Lherm",
    "postalCode": "46150",
    "city": "Lherm",
    "region": "Lot (46)",
    "lat": 44.5797505,
    "lng": 1.2674239,
    "website": "https://goo.gl/maps/87FcjaRR5pufbZmT9",
    "source": "Fiches Bienvenue à la ferme fournies par Label Vanlife"
  },
  {
    "id": "bienvenue-ferme-ferme-de-caffoulens",
    "name": "FERME DE CAFFOULENS",
    "network": "Bienvenue à la ferme",
    "address": "Ferme de Caffoulens, Maison neuve, 46100, Viazac",
    "postalCode": "46100",
    "city": "Viazac",
    "region": "Lot (46)",
    "lat": 44.64175788566,
    "lng": 2.0754289627075,
    "website": null,
    "source": "Fiches Bienvenue à la ferme fournies par Label Vanlife"
  },
  {
    "id": "bienvenue-ferme-ferme-de-castel-pouzouilh",
    "name": "Ferme de Castel Pouzouilh",
    "network": "Bienvenue à la ferme",
    "address": "FERME DE CASTEL POUZOUILH, Lieu dit Castel Pouzouilh, 09130, Le Fossat",
    "postalCode": "09130",
    "city": "Le Fossat",
    "region": "Ariège (09)",
    "lat": 43.168827,
    "lng": 1.438991,
    "website": "https://www.fermedecastelpouzouilh.com/",
    "source": "Fiches Bienvenue à la ferme fournies par Label Vanlife"
  },
  {
    "id": "bienvenue-ferme-ferme-de-castelnau",
    "name": "Ferme de Castelnau",
    "network": "Bienvenue à la ferme",
    "address": "Castelnau, 12230, Nant",
    "postalCode": "12230",
    "city": "Nant",
    "region": "Aveyron (12)",
    "lat": 44.013327028665,
    "lng": 3.3205533027649,
    "website": "https://destroisrivieres.wixsite.com/castelnau",
    "source": "Fiches Bienvenue à la ferme fournies par Label Vanlife"
  },
  {
    "id": "bienvenue-ferme-ferme-de-la-besse",
    "name": "Ferme de la Besse",
    "network": "Bienvenue à la ferme",
    "address": "LA BESSE, 11230, Sonnac-sur-l'Hers",
    "postalCode": "11230",
    "city": "Sonnac-sur-l'Hers",
    "region": "Aude (11)",
    "lat": 43.013557,
    "lng": 1.969982,
    "website": null,
    "source": "Fiches Bienvenue à la ferme fournies par Label Vanlife"
  },
  {
    "id": "bienvenue-ferme-ferme-de-la-borde",
    "name": "Ferme de la Borde",
    "network": "Bienvenue à la ferme",
    "address": "528 route de rignac, la Borde, 12390, Bournazel",
    "postalCode": "12390",
    "city": "Bournazel",
    "region": "Aveyron (12)",
    "lat": 44.457013,
    "lng": 2.297848,
    "website": "http://fermelaborde12.fr/",
    "source": "Fiches Bienvenue à la ferme fournies par Label Vanlife"
  },
  {
    "id": "bienvenue-ferme-ferme-de-la-mercy",
    "name": "Ferme de la Mercy",
    "network": "Bienvenue à la ferme",
    "address": "La Mercy Route de La Croix, 77160, Chenoise-Cucharmoy",
    "postalCode": "77160",
    "city": "Chenoise-Cucharmoy",
    "region": "Seine-et-Marne (77)",
    "lat": 48.609137,
    "lng": 3.1588340000001,
    "website": null,
    "source": "Fiches Bienvenue à la ferme fournies par Label Vanlife"
  },
  {
    "id": "bienvenue-ferme-ferme-de-la-moriniere",
    "name": "Ferme de la Morinière",
    "network": "Bienvenue à la ferme",
    "address": "La Morinière, 50770, Pirou",
    "postalCode": "50770",
    "city": "Pirou",
    "region": "Manche (50)",
    "lat": 49.143631064013,
    "lng": -1.5818435238037,
    "website": null,
    "source": "Fiches Bienvenue à la ferme fournies par Label Vanlife"
  },
  {
    "id": "bienvenue-ferme-ferme-de-la-pequiniere",
    "name": "Ferme de La Péquinière",
    "network": "Bienvenue à la ferme",
    "address": "1 La Péquinière, 44430, La Boissière-du-Doré",
    "postalCode": "44430",
    "city": "La Boissière-du-Doré",
    "region": "Loire-Atlantique (44)",
    "lat": 47.234343937611,
    "lng": -1.1886227139621,
    "website": null,
    "source": "Fiches Bienvenue à la ferme fournies par Label Vanlife"
  },
  {
    "id": "bienvenue-ferme-ferme-de-la-rasse",
    "name": "Ferme de la Rasse",
    "network": "Bienvenue à la ferme",
    "address": "6 rue de la Rasse, 25520, Arc-sous-Cicon",
    "postalCode": "25520",
    "city": "Arc-sous-Cicon",
    "region": "Doubs (25)",
    "lat": 47.058615874145,
    "lng": 6.4058183692396,
    "website": null,
    "source": "Fiches Bienvenue à la ferme fournies par Label Vanlife"
  },
  {
    "id": "bienvenue-ferme-ferme-de-la-tacherie",
    "name": "Ferme de la Tâcherie",
    "network": "Bienvenue à la ferme",
    "address": "La Tâcherie, 12620, Saint-Beauzély",
    "postalCode": "12620",
    "city": "Saint-Beauzély",
    "region": "Aveyron (12)",
    "lat": 44.177636,
    "lng": 2.999282,
    "website": "https://www.camping-latacherie.net/",
    "source": "Fiches Bienvenue à la ferme fournies par Label Vanlife"
  },
  {
    "id": "bienvenue-ferme-ferme-de-la-tournerie",
    "name": "Ferme de la Tournerie",
    "network": "Bienvenue à la ferme",
    "address": "La Tournerie, 50500, Raids",
    "postalCode": "50500",
    "city": "Raids",
    "region": "Manche (50)",
    "lat": 49.20668,
    "lng": -1.36809,
    "website": "https://www.facebook.com/profile.php?id=100063485483957",
    "source": "Fiches Bienvenue à la ferme fournies par Label Vanlife"
  },
  {
    "id": "bienvenue-ferme-ferme-de-la-vallee-de-beille-famille-bernadac",
    "name": "Ferme de la vallée de Beille - Famille Bernadac",
    "network": "Bienvenue à la ferme",
    "address": "",
    "postalCode": "",
    "city": "Verdun",
    "region": "Ariège (09)",
    "lat": 42.79153247773,
    "lng": 1.6910448529175,
    "website": null,
    "source": "Fiches Bienvenue à la ferme fournies par Label Vanlife"
  },
  {
    "id": "bienvenue-ferme-ferme-de-lafayas",
    "name": "Ferme de Lafayas",
    "network": "Bienvenue à la ferme",
    "address": "4 route des Autruches, Lafayas, 24600, Celles",
    "postalCode": "24600",
    "city": "Celles",
    "region": "Dordogne (24)",
    "lat": 45.28846,
    "lng": 0.41178,
    "website": "http://www.fermelafayas.com",
    "source": "Fiches Bienvenue à la ferme fournies par Label Vanlife"
  },
  {
    "id": "bienvenue-ferme-ferme-de-monredon",
    "name": "Ferme de Monredon",
    "network": "Bienvenue à la ferme",
    "address": "Monredon, 47150, Saint-Aubin",
    "postalCode": "47150",
    "city": "Saint-Aubin",
    "region": "Lot-et-Garonne (47)",
    "lat": 44.466835,
    "lng": 0.822914,
    "website": "http://www.fermedemonredon.com",
    "source": "Fiches Bienvenue à la ferme fournies par Label Vanlife"
  },
  {
    "id": "bienvenue-ferme-ferme-de-pommerol",
    "name": "FERME DE POMMEROL",
    "network": "Bienvenue à la ferme",
    "address": "Chemin ferme de Pommerol, 26470, Pommerol",
    "postalCode": "26470",
    "city": "Pommerol",
    "region": "Drôme (26)",
    "lat": 44.445009,
    "lng": 5.459261,
    "website": "http://www.fermedepommerol.com",
    "source": "Fiches Bienvenue à la ferme fournies par Label Vanlife"
  },
  {
    "id": "bienvenue-ferme-ferme-de-prat-claux",
    "name": "FERME DE PRAT CLAUX",
    "network": "Bienvenue à la ferme",
    "address": "Prat-Claux, 48190, Mont Lozère et Goulet",
    "postalCode": "48190",
    "city": "Mont Lozère et Goulet",
    "region": "Lozère (48)",
    "lat": 44.5506926,
    "lng": 3.8334452,
    "website": "http://fermedepratclaux.e-monsite.com/",
    "source": "Fiches Bienvenue à la ferme fournies par Label Vanlife"
  },
  {
    "id": "bienvenue-ferme-ferme-de-princay",
    "name": "Ferme de Prinçay",
    "network": "Bienvenue à la ferme",
    "address": "Prinçay, 36210, Anjouin",
    "postalCode": "36210",
    "city": "Anjouin",
    "region": "Indre (36)",
    "lat": 47.174961150264,
    "lng": 1.800069801975,
    "website": null,
    "source": "Fiches Bienvenue à la ferme fournies par Label Vanlife"
  },
  {
    "id": "bienvenue-ferme-ferme-de-viescamp",
    "name": "FERME DE VIESCAMP",
    "network": "Bienvenue à la ferme",
    "address": "15 avenue des tilleuls, Viescamp village de Pers, 15290, Le Rouget-Pers",
    "postalCode": "15290",
    "city": "Le Rouget-Pers",
    "region": "Cantal (15)",
    "lat": 44.889386,
    "lng": 2.237322,
    "website": "http://www.viescampers.com",
    "source": "Fiches Bienvenue à la ferme fournies par Label Vanlife"
  },
  {
    "id": "bienvenue-ferme-ferme-des-vernhes",
    "name": "Ferme des Vernhes",
    "network": "Bienvenue à la ferme",
    "address": "Les Vernhes BP9, 12410, Salles-Curan",
    "postalCode": "12410",
    "city": "Salles-Curan",
    "region": "Aveyron (12)",
    "lat": 44.206541,
    "lng": 2.778817,
    "website": "http://camping-des-vernhes.monsite.orange.fr",
    "source": "Fiches Bienvenue à la ferme fournies par Label Vanlife"
  },
  {
    "id": "bienvenue-ferme-ferme-diriart",
    "name": "Ferme DIRIART",
    "network": "Bienvenue à la ferme",
    "address": "195 chemin d'etxemendiberea, 64780, Suhescun",
    "postalCode": "64780",
    "city": "Suhescun",
    "region": "Pyrénées-Atlantiques (64)",
    "lat": 43.237842,
    "lng": -1.206322,
    "website": "https://www.gite-diriart.fr/",
    "source": "Fiches Bienvenue à la ferme fournies par Label Vanlife"
  },
  {
    "id": "bienvenue-ferme-ferme-dossat",
    "name": "Ferme Dossat",
    "network": "Bienvenue à la ferme",
    "address": "7 rue du Montaigu, 65100, Juncalas",
    "postalCode": "65100",
    "city": "Juncalas",
    "region": "Hautes-Pyrénées (65)",
    "lat": 43.0541455,
    "lng": 0.0005217,
    "website": "http://www.gitedossat.fr",
    "source": "Fiches Bienvenue à la ferme fournies par Label Vanlife"
  },
  {
    "id": "bienvenue-ferme-ferme-du-bas-chalus",
    "name": "Ferme du Bas Chalus",
    "network": "Bienvenue à la ferme",
    "address": "Route de Niozelles - RN 100, Le Bas-Chalus, 04300, Forcalquier",
    "postalCode": "04300",
    "city": "Forcalquier",
    "region": "Alpes-de-Haute-Provence (04)",
    "lat": 43.95967,
    "lng": 5.780717,
    "website": "http://www.baschalus.fr",
    "source": "Fiches Bienvenue à la ferme fournies par Label Vanlife"
  },
  {
    "id": "bienvenue-ferme-ferme-du-chapi",
    "name": "Ferme du Chapi",
    "network": "Bienvenue à la ferme",
    "address": "343 ROUTE DU BERTHIER -VAL D'OINGT, Le Berthier, 69620, Val d'Oingt",
    "postalCode": "69620",
    "city": "Val d'Oingt",
    "region": "Rhône (69)",
    "lat": 45.928229509336,
    "lng": 4.5469665527344,
    "website": "http://www.lafermeduchapi.com",
    "source": "Fiches Bienvenue à la ferme fournies par Label Vanlife"
  },
  {
    "id": "bienvenue-ferme-ferme-du-claps",
    "name": "FERME DU CLAPS",
    "network": "Bienvenue à la ferme",
    "address": "Ferme du Claps, 26310, Luc-en-Diois",
    "postalCode": "26310",
    "city": "Luc-en-Diois",
    "region": "Drôme (26)",
    "lat": 44.603442,
    "lng": 5.456262,
    "website": "http://camping.claps.pagesperso-orange.fr/",
    "source": "Fiches Bienvenue à la ferme fournies par Label Vanlife"
  },
  {
    "id": "bienvenue-ferme-ferme-du-marais-de-mazerolles",
    "name": "Ferme du Marais de Mazerolles",
    "network": "Bienvenue à la ferme",
    "address": "713 Le Grand Pâtis, 44850, Saint-Mars-du-Désert",
    "postalCode": "44850",
    "city": "Saint-Mars-du-Désert",
    "region": "Loire-Atlantique (44)",
    "lat": 47.374859329401,
    "lng": -1.4522113278508,
    "website": "http://www.mazerolles.com",
    "source": "Fiches Bienvenue à la ferme fournies par Label Vanlife"
  },
  {
    "id": "bienvenue-ferme-ferme-du-noisetier",
    "name": "Ferme du Noisetier",
    "network": "Bienvenue à la ferme",
    "address": "Cordesse, 15260, Neuvéglise-sur-Truyère",
    "postalCode": "15260",
    "city": "Neuvéglise-sur-Truyère",
    "region": "Cantal (15)",
    "lat": 44.934919,
    "lng": 2.998112,
    "website": "http://www.aupredesyourtes.com",
    "source": "Fiches Bienvenue à la ferme fournies par Label Vanlife"
  },
  {
    "id": "bienvenue-ferme-ferme-du-perruchet",
    "name": "Ferme du Perruchet",
    "network": "Bienvenue à la ferme",
    "address": "1 route des Volcans, 15590, Saint-Cirgues-de-Jordanne",
    "postalCode": "15590",
    "city": "Saint-Cirgues-de-Jordanne",
    "region": "Cantal (15)",
    "lat": 45.063060005035,
    "lng": 2.6382090476074,
    "website": "http://campingalafermeduperruchet.blog4ever.com/blog/",
    "source": "Fiches Bienvenue à la ferme fournies par Label Vanlife"
  },
  {
    "id": "bienvenue-ferme-ferme-du-plantier",
    "name": "Ferme du Plantier",
    "network": "Bienvenue à la ferme",
    "address": "1, rue de l'oulet, 65400, Ouzous",
    "postalCode": "65400",
    "city": "Ouzous",
    "region": "Hautes-Pyrénées (65)",
    "lat": 43.029854,
    "lng": -0.107424,
    "website": null,
    "source": "Fiches Bienvenue à la ferme fournies par Label Vanlife"
  },
  {
    "id": "bienvenue-ferme-ferme-du-pont-de-sargy",
    "name": "FERME DU PONT DE SARGY",
    "network": "Bienvenue à la ferme",
    "address": "LE PONT DE SARGY, 18210, Bannegon",
    "postalCode": "18210",
    "city": "Bannegon",
    "region": "Cher (18)",
    "lat": 46.80941,
    "lng": 2.732031,
    "website": null,
    "source": "Fiches Bienvenue à la ferme fournies par Label Vanlife"
  },
  {
    "id": "bienvenue-ferme-ferme-du-sahut",
    "name": "Ferme du Sahut",
    "network": "Bienvenue à la ferme",
    "address": "Le Sahut, 12620, Castelnau-Pégayrols",
    "postalCode": "12620",
    "city": "Castelnau-Pégayrols",
    "region": "Aveyron (12)",
    "lat": 44.135059745626,
    "lng": 2.9053688049316,
    "website": "http://www.millaugite.fr",
    "source": "Fiches Bienvenue à la ferme fournies par Label Vanlife"
  },
  {
    "id": "bienvenue-ferme-ferme-equestre-de-pom",
    "name": "Ferme équestre de Pom'",
    "network": "Bienvenue à la ferme",
    "address": "549 route des essarts, 76680, Pommeréval",
    "postalCode": "76680",
    "city": "Pommeréval",
    "region": "Seine-Maritime (76)",
    "lat": 49.73833,
    "lng": 1.298004,
    "website": "http://www.centre-equestre-lerat-pommereval.com",
    "source": "Fiches Bienvenue à la ferme fournies par Label Vanlife"
  },
  {
    "id": "bienvenue-ferme-ferme-graverolle",
    "name": "Ferme Graverolle",
    "network": "Bienvenue à la ferme",
    "address": "Chemin des Fontaines, Ferme Graverolle, 07120, Saint-Alban-Auriolles",
    "postalCode": "07120",
    "city": "Saint-Alban-Auriolles",
    "region": "Ardèche (07)",
    "lat": 44.424724,
    "lng": 4.302622,
    "website": "http://www.ferme-graverolle.com",
    "source": "Fiches Bienvenue à la ferme fournies par Label Vanlife"
  },
  {
    "id": "bienvenue-ferme-ferme-la-communion",
    "name": "Ferme La Communion",
    "network": "Bienvenue à la ferme",
    "address": "La Communion, 31310, Latour",
    "postalCode": "31310",
    "city": "Latour",
    "region": "Haute-Garonne (31)",
    "lat": 43.205207098515,
    "lng": 1.2695646286011,
    "website": "http://www.vacances-lacommunion.fr",
    "source": "Fiches Bienvenue à la ferme fournies par Label Vanlife"
  },
  {
    "id": "bienvenue-ferme-ferme-la-ramiere",
    "name": "Ferme la Ramière",
    "network": "Bienvenue à la ferme",
    "address": "7 chemin d'Arcaude, Chemin d'Arcaude - Camping La Ramiere, 64260, Sainte-Colome",
    "postalCode": "64260",
    "city": "Sainte-Colome",
    "region": "Pyrénées-Atlantiques (64)",
    "lat": 43.118465121149,
    "lng": -0.37727594375614,
    "website": "http://www.ferme-la-ramiere.com",
    "source": "Fiches Bienvenue à la ferme fournies par Label Vanlife"
  },
  {
    "id": "bienvenue-ferme-ferme-la-savoillane",
    "name": "FERME LA SAVOILLANE",
    "network": "Bienvenue à la ferme",
    "address": "La Savoillane, 26170, Buis-les-Baronnies",
    "postalCode": "26170",
    "city": "Buis-les-Baronnies",
    "region": "Drôme (26)",
    "lat": 44.276647,
    "lng": 5.24757,
    "website": null,
    "source": "Fiches Bienvenue à la ferme fournies par Label Vanlife"
  },
  {
    "id": "bienvenue-ferme-ferme-landran",
    "name": "Ferme Landran",
    "network": "Bienvenue à la ferme",
    "address": "Ferme Landran (landrania), Quartier Larréguy, 64130, Ordiarp",
    "postalCode": "64130",
    "city": "Ordiarp",
    "region": "Pyrénées-Atlantiques (64)",
    "lat": 43.201923532647,
    "lng": -0.93939975393677,
    "website": null,
    "source": "Fiches Bienvenue à la ferme fournies par Label Vanlife"
  },
  {
    "id": "bienvenue-ferme-ferme-les-pins",
    "name": "FERME LES PINS",
    "network": "Bienvenue à la ferme",
    "address": "515 Route les Pins, 26350, Montchenu",
    "postalCode": "26350",
    "city": "Montchenu",
    "region": "Drôme (26)",
    "lat": 45.185356,
    "lng": 5.022081,
    "website": null,
    "source": "Fiches Bienvenue à la ferme fournies par Label Vanlife"
  },
  {
    "id": "bienvenue-ferme-ferme-lo-casau",
    "name": "Ferme Lo Casau",
    "network": "Bienvenue à la ferme",
    "address": "7, Route Départementale 817, Lo cami nau, 64420, Artigueloutan",
    "postalCode": "64420",
    "city": "Artigueloutan",
    "region": "Pyrénées-Atlantiques (64)",
    "lat": 43.282516000396,
    "lng": -0.2467202486572,
    "website": "http://www.gites64.com/lo-casau",
    "source": "Fiches Bienvenue à la ferme fournies par Label Vanlife"
  },
  {
    "id": "bienvenue-ferme-ferme-milhac-oie-en-perigord",
    "name": "Ferme Milhac Oie en Périgord",
    "network": "Bienvenue à la ferme",
    "address": "120 impasse du Château Roy, Milhac d'Auberoche, 24330, Bassillac et Auberoche",
    "postalCode": "24330",
    "city": "Bassillac et Auberoche",
    "region": "Dordogne (24)",
    "lat": 45.112,
    "lng": 0.91886,
    "website": null,
    "source": "Fiches Bienvenue à la ferme fournies par Label Vanlife"
  },
  {
    "id": "bienvenue-ferme-ferme-rony",
    "name": "Ferme Rony",
    "network": "Bienvenue à la ferme",
    "address": "411 route de Rochetière, 38250, Saint-Nizier-du-Moucherotte",
    "postalCode": "38250",
    "city": "Saint-Nizier-du-Moucherotte",
    "region": "Isère (38)",
    "lat": 45.177389619355,
    "lng": 5.6363296508789,
    "website": "http://www.fermerony.fr/",
    "source": "Fiches Bienvenue à la ferme fournies par Label Vanlife"
  },
  {
    "id": "bienvenue-ferme-finca-baribal",
    "name": "FINCA BARIBAL",
    "network": "Bienvenue à la ferme",
    "address": "Les Cayrousses, 46260, Concots",
    "postalCode": "46260",
    "city": "Concots",
    "region": "Lot (46)",
    "lat": 44.408688,
    "lng": 1.643171,
    "website": null,
    "source": "Fiches Bienvenue à la ferme fournies par Label Vanlife"
  },
  {
    "id": "bienvenue-ferme-gaec-de-la-bourioune",
    "name": "GAEC DE LA BOURIOUNE",
    "network": "Bienvenue à la ferme",
    "address": "GRANEJOULS - LHOSPITALET, GRANEJOULS - LHOSPITALET, 46170, Pern-Lhospitalet",
    "postalCode": "46170",
    "city": "Pern-Lhospitalet",
    "region": "Lot (46)",
    "lat": 44.359313,
    "lng": 1.407129,
    "website": null,
    "source": "Fiches Bienvenue à la ferme fournies par Label Vanlife"
  },
  {
    "id": "bienvenue-ferme-gaec-du-mazardy",
    "name": "GAEC du Mazardy",
    "network": "Bienvenue à la ferme",
    "address": "2 Mazardy, 87230, Champsac",
    "postalCode": "87230",
    "city": "Champsac",
    "region": "Haute-Vienne (87)",
    "lat": 45.708062082325,
    "lng": 0.98329746731906,
    "website": "https://www.bramefort.com",
    "source": "Fiches Bienvenue à la ferme fournies par Label Vanlife"
  },
  {
    "id": "bienvenue-ferme-gaec-ferme-de-la-fringale",
    "name": "GAEC Ferme de la Fringale",
    "network": "Bienvenue à la ferme",
    "address": "2 les Vaudettes, 36600, Veuil",
    "postalCode": "36600",
    "city": "Veuil",
    "region": "Indre (36)",
    "lat": 47.126977,
    "lng": 1.49905,
    "website": "https://www.gaec-fermedelafringale.com/",
    "source": "Fiches Bienvenue à la ferme fournies par Label Vanlife"
  },
  {
    "id": "bienvenue-ferme-gaec-les-chevriers-catalans",
    "name": "GAEC les Chevriers catalans",
    "network": "Bienvenue à la ferme",
    "address": "Ferme Plana Nera, La Preste, 66230, Prats-de-Mollo-la-Preste",
    "postalCode": "66230",
    "city": "Prats-de-Mollo-la-Preste",
    "region": "Pyrénées-Orientales (66)",
    "lat": 42.406442471276,
    "lng": 2.3985064029694,
    "website": null,
    "source": "Fiches Bienvenue à la ferme fournies par Label Vanlife"
  },
  {
    "id": "bienvenue-ferme-gitenchassagne",
    "name": "GITENCHASSAGNE",
    "network": "Bienvenue à la ferme",
    "address": "23, Chemin de Chassagne, 69510, Thurins",
    "postalCode": "69510",
    "city": "Thurins",
    "region": "Rhône (69)",
    "lat": 45.684482,
    "lng": 4.655868,
    "website": null,
    "source": "Fiches Bienvenue à la ferme fournies par Label Vanlife"
  },
  {
    "id": "bienvenue-ferme-guinland",
    "name": "Guinland",
    "network": "Bienvenue à la ferme",
    "address": "758, chemin de Guinland, Guinland, 32100, Condom",
    "postalCode": "32100",
    "city": "Condom",
    "region": "Gers (32)",
    "lat": 43.9747879,
    "lng": 0.41985,
    "website": null,
    "source": "Fiches Bienvenue à la ferme fournies par Label Vanlife"
  },
  {
    "id": "bienvenue-ferme-hortiver-lombriculture",
    "name": "Hortiver Lombriculture",
    "network": "Bienvenue à la ferme",
    "address": "1 route de Ginalhac, 15250, Laroquevieille",
    "postalCode": "15250",
    "city": "Laroquevieille",
    "region": "Cantal (15)",
    "lat": 45.012935606319,
    "lng": 2.5133800506592,
    "website": "http://www.hortiver.fr",
    "source": "Fiches Bienvenue à la ferme fournies par Label Vanlife"
  },
  {
    "id": "bienvenue-ferme-la-canardiere",
    "name": "LA CANARDIERE",
    "network": "Bienvenue à la ferme",
    "address": "1245 strada di Piretu, CASTA, 20246, Santo-Pietro-di-Tenda",
    "postalCode": "20246",
    "city": "Santo-Pietro-di-Tenda",
    "region": "Haute-Corse (20)",
    "lat": 42.64975,
    "lng": 9.23796,
    "website": "http://www.lacanardiere.com",
    "source": "Fiches Bienvenue à la ferme fournies par Label Vanlife"
  },
  {
    "id": "bienvenue-ferme-la-chevauchee",
    "name": "La Chevauchée",
    "network": "Bienvenue à la ferme",
    "address": "Les Couperies basses, 23320, Bussière-Dunoise",
    "postalCode": "23320",
    "city": "Bussière-Dunoise",
    "region": "Creuse (23)",
    "lat": 46.269337881654,
    "lng": 1.8047207589552,
    "website": "http://www.la-chevauchee.fr",
    "source": "Fiches Bienvenue à la ferme fournies par Label Vanlife"
  },
  {
    "id": "bienvenue-ferme-la-ferme-aux-5-saisons",
    "name": "La ferme aux 5 saisons",
    "network": "Bienvenue à la ferme",
    "address": "Rue des Moliers, 50340, Flamanville",
    "postalCode": "50340",
    "city": "Flamanville",
    "region": "Manche (50)",
    "lat": 49.529373645545,
    "lng": -1.8501214054565,
    "website": "http://www.lafermeaux5saisons.fr",
    "source": "Fiches Bienvenue à la ferme fournies par Label Vanlife"
  },
  {
    "id": "bienvenue-ferme-la-ferme-aux-anesses",
    "name": "La Ferme aux anesses",
    "network": "Bienvenue à la ferme",
    "address": "2, La Bellardière, 79300, Bressuire",
    "postalCode": "79300",
    "city": "Bressuire",
    "region": "Deux-Sèvres (79)",
    "lat": 46.816016426654045,
    "lng": -0.5029078505477625,
    "website": "https://www.savon-lait-anesse.com/",
    "source": "Fiches Bienvenue à la ferme fournies par Label Vanlife"
  },
  {
    "id": "bienvenue-ferme-la-ferme-bio-de-vauvenieres",
    "name": "La Ferme Bio de Vauvenières",
    "network": "Bienvenue à la ferme",
    "address": "Ferme de Vauvenières, 04410, Saint-Jurs",
    "postalCode": "04410",
    "city": "Saint-Jurs",
    "region": "Alpes-de-Haute-Provence (04)",
    "lat": 43.898642288531,
    "lng": 6.1994969844818,
    "website": "http://www.ferme-de-vauvenieres.fr",
    "source": "Fiches Bienvenue à la ferme fournies par Label Vanlife"
  },
  {
    "id": "bienvenue-ferme-la-ferme-d-oulan-bat",
    "name": "La Ferme D' Oulan Bât",
    "network": "Bienvenue à la ferme",
    "address": "46 rue de Planque, 31160, Arbas",
    "postalCode": "31160",
    "city": "Arbas",
    "region": "Haute-Garonne (31)",
    "lat": 42.993088911459,
    "lng": 0.89935541152954,
    "website": "http://www.lafermedoulanbat.fr",
    "source": "Fiches Bienvenue à la ferme fournies par Label Vanlife"
  },
  {
    "id": "bienvenue-ferme-la-ferme-de-croas-men",
    "name": "La Ferme de Croas Men",
    "network": "Bienvenue à la ferme",
    "address": "Croas Men, 29610, Plouigneau",
    "postalCode": "29610",
    "city": "Plouigneau",
    "region": "Finistère (29)",
    "lat": 48.604926196569,
    "lng": -3.7409734725952,
    "website": "http://ferme-de-croasmen.com",
    "source": "Fiches Bienvenue à la ferme fournies par Label Vanlife"
  },
  {
    "id": "bienvenue-ferme-la-ferme-de-la-besse",
    "name": "La Ferme de La Besse",
    "network": "Bienvenue à la ferme",
    "address": "Domaine de La Besse, 09500, Camon",
    "postalCode": "09500",
    "city": "Camon",
    "region": "Ariège (09)",
    "lat": 43.013557,
    "lng": 1.969982,
    "website": "http://www.camping-labesse.com",
    "source": "Fiches Bienvenue à la ferme fournies par Label Vanlife"
  },
  {
    "id": "bienvenue-ferme-la-ferme-de-la-bouriote-pierre-et-armelle-eyrignoux",
    "name": "LA FERME DE LA BOURIOTE - Pierre et Armelle EYRIGNOUX",
    "network": "Bienvenue à la ferme",
    "address": "",
    "postalCode": "",
    "city": "Hautefage",
    "region": "Corrèze (19)",
    "lat": 45.0758448,
    "lng": 1.9865148,
    "website": null,
    "source": "Fiches Bienvenue à la ferme fournies par Label Vanlife"
  },
  {
    "id": "bienvenue-ferme-la-ferme-de-la-croze",
    "name": "La Ferme de la Croze",
    "network": "Bienvenue à la ferme",
    "address": "767 ROUTE DE LA CROZE, 07530, Saint-Joseph-des-Bancs",
    "postalCode": "07530",
    "city": "Saint-Joseph-des-Bancs",
    "region": "Ardèche (07)",
    "lat": 44.742226311245,
    "lng": 4.4068318605423,
    "website": "https://camping-ferme-de-la-croze.com/",
    "source": "Fiches Bienvenue à la ferme fournies par Label Vanlife"
  },
  {
    "id": "bienvenue-ferme-la-ferme-de-masloup-noel-fraysse",
    "name": "LA FERME DE MASLOUP - Noël FRAYSSE",
    "network": "Bienvenue à la ferme",
    "address": "",
    "postalCode": "",
    "city": "Mansac",
    "region": "Corrèze (19)",
    "lat": 45.1689513,
    "lng": 1.3924437000001,
    "website": null,
    "source": "Fiches Bienvenue à la ferme fournies par Label Vanlife"
  },
  {
    "id": "bienvenue-ferme-la-ferme-de-matt-lili",
    "name": "LA FERME DE MATT & LILI",
    "network": "Bienvenue à la ferme",
    "address": "4860 route de Loriol, 26400, Grane",
    "postalCode": "26400",
    "city": "Grane",
    "region": "Drôme (26)",
    "lat": 44.75534,
    "lng": 4.86896,
    "website": "https://www.facebook.com/fermedemattetlili",
    "source": "Fiches Bienvenue à la ferme fournies par Label Vanlife"
  },
  {
    "id": "bienvenue-ferme-la-ferme-des-bisons-de-l-oisans",
    "name": "La Ferme des Bisons de l'Oisans",
    "network": "Bienvenue à la ferme",
    "address": "Rochetaillée, 38520, Le Bourg-d'Oisans",
    "postalCode": "38520",
    "city": "Le Bourg-d'Oisans",
    "region": "Isère (38)",
    "lat": 45.055004,
    "lng": 6.029768,
    "website": "https://www.lafermedesbisonsdeloisans.fr/",
    "source": "Fiches Bienvenue à la ferme fournies par Label Vanlife"
  },
  {
    "id": "bienvenue-ferme-la-ferme-des-bourettes",
    "name": "La ferme des bourettes",
    "network": "Bienvenue à la ferme",
    "address": "1301, route Saint Clément, Hauteville, 69610, Haute-Rivoire",
    "postalCode": "69610",
    "city": "Haute-Rivoire",
    "region": "Rhône (69)",
    "lat": 45.735349562475,
    "lng": 4.4114775657654,
    "website": "http://lafermedesbourettes.fr",
    "source": "Fiches Bienvenue à la ferme fournies par Label Vanlife"
  },
  {
    "id": "bienvenue-ferme-la-ferme-des-chanaux",
    "name": "La Ferme des chanaux",
    "network": "Bienvenue à la ferme",
    "address": "146 CHEMIN DE LA BOHEME, LE BOUCHET PILHAC, 43500, Saint-Julien-d'Ance",
    "postalCode": "43500",
    "city": "Saint-Julien-d'Ance",
    "region": "Haute-Loire (43)",
    "lat": 45.335255,
    "lng": 3.93026,
    "website": null,
    "source": "Fiches Bienvenue à la ferme fournies par Label Vanlife"
  },
  {
    "id": "bienvenue-ferme-la-ferme-des-saules",
    "name": "la Ferme des Saules",
    "network": "Bienvenue à la ferme",
    "address": "453 route du Mont Noir, 59270, Bailleul",
    "postalCode": "59270",
    "city": "Bailleul",
    "region": "Nord (59)",
    "lat": 50.761370649566,
    "lng": 2.7496786428674,
    "website": "http://www.ferme-des-saules.com/",
    "source": "Fiches Bienvenue à la ferme fournies par Label Vanlife"
  },
  {
    "id": "bienvenue-ferme-la-ferme-du-caroire",
    "name": "LA FERME DU CAROIRE",
    "network": "Bienvenue à la ferme",
    "address": "Champ d'oeuf, 36290, Azay-le-Ferron",
    "postalCode": "36290",
    "city": "Azay-le-Ferron",
    "region": "Indre (36)",
    "lat": 46.827814062119,
    "lng": 1.0423278808594,
    "website": "https://www.fermeducaroire.fr/",
    "source": "Fiches Bienvenue à la ferme fournies par Label Vanlife"
  },
  {
    "id": "bienvenue-ferme-la-ferme-du-cheiron",
    "name": "La Ferme du Cheiron",
    "network": "Bienvenue à la ferme",
    "address": "Le Cheiron, RD 955, Le Cheiron, 04120, Castellane",
    "postalCode": "04120",
    "city": "Castellane",
    "region": "Alpes-de-Haute-Provence (04)",
    "lat": 43.876441,
    "lng": 6.507207,
    "website": "http://fermeducheiron.wix.com/castellane",
    "source": "Fiches Bienvenue à la ferme fournies par Label Vanlife"
  },
  {
    "id": "bienvenue-ferme-la-ferme-du-clos",
    "name": "La Ferme du Clos",
    "network": "Bienvenue à la ferme",
    "address": "210 chemin du clos, 38680, Châtelus",
    "postalCode": "38680",
    "city": "Châtelus",
    "region": "Isère (38)",
    "lat": 45.057324398948,
    "lng": 5.3725004161242,
    "website": "http://www.lafermeduclos.fr",
    "source": "Fiches Bienvenue à la ferme fournies par Label Vanlife"
  },
  {
    "id": "bienvenue-ferme-la-ferme-du-grand-veymont",
    "name": "La Ferme du Grand Veymont",
    "network": "Bienvenue à la ferme",
    "address": "922 Chemin du Serre Monet, Le Serre Monet, 38650, Gresse-en-Vercors",
    "postalCode": "38650",
    "city": "Gresse-en-Vercors",
    "region": "Isère (38)",
    "lat": 44.909127228829,
    "lng": 5.5570793012157,
    "website": null,
    "source": "Fiches Bienvenue à la ferme fournies par Label Vanlife"
  },
  {
    "id": "bienvenue-ferme-la-ferme-du-marais-poitevin",
    "name": "La Ferme du Marais poitevin",
    "network": "Bienvenue à la ferme",
    "address": "Sainte-Christine, 85490, Benet",
    "postalCode": "85490",
    "city": "Benet",
    "region": "Vendée (85)",
    "lat": 46.355550844403,
    "lng": -0.66711290674584,
    "website": "http://www.lafermedumaraispoitevin.fr",
    "source": "Fiches Bienvenue à la ferme fournies par Label Vanlife"
  },
  {
    "id": "bienvenue-ferme-la-ferme-du-petit-nid",
    "name": "La Ferme du Petit Nid",
    "network": "Bienvenue à la ferme",
    "address": "945 route du Diois, 26400, Mirabel-et-Blacons",
    "postalCode": "26400",
    "city": "Mirabel-et-Blacons",
    "region": "Drôme (26)",
    "lat": 44.701183,
    "lng": 5.123173,
    "website": null,
    "source": "Fiches Bienvenue à la ferme fournies par Label Vanlife"
  },
  {
    "id": "bienvenue-ferme-la-ferme-du-pourpray",
    "name": "La Ferme du Pourpray",
    "network": "Bienvenue à la ferme",
    "address": "Le Pourpray, Le Pourpray, 22400, Saint-Alban",
    "postalCode": "22400",
    "city": "Saint-Alban",
    "region": "Côtes-d'Armor (22)",
    "lat": 48.567888,
    "lng": -2.56206,
    "website": "http://sites.google.com/site/lafermedupourpray",
    "source": "Fiches Bienvenue à la ferme fournies par Label Vanlife"
  },
  {
    "id": "bienvenue-ferme-la-ferme-du-vallon",
    "name": "La Ferme du vallon",
    "network": "Bienvenue à la ferme",
    "address": "1, Rue de la Mairie, MOIREY, 55150, Moirey-Flabas-Crépion",
    "postalCode": "55150",
    "city": "Moirey-Flabas-Crépion",
    "region": "Meuse (55)",
    "lat": 49.306681,
    "lng": 5.404135,
    "website": "https://leranchduvallon.fr/",
    "source": "Fiches Bienvenue à la ferme fournies par Label Vanlife"
  },
  {
    "id": "bienvenue-ferme-la-grange-du-bos-sebastien-malpelas",
    "name": "LA GRANGE DU BOS - Sébastien MALPELAS",
    "network": "Bienvenue à la ferme",
    "address": "LA GRANGE DU BOS, 19200, Ussel",
    "postalCode": "19200",
    "city": "Ussel",
    "region": "Corrèze (19)",
    "lat": 45.5515962,
    "lng": 2.2786693,
    "website": null,
    "source": "Fiches Bienvenue à la ferme fournies par Label Vanlife"
  },
  {
    "id": "bienvenue-ferme-la-petite-ferme-d-alpagas-sanzay",
    "name": "La Petite Ferme d'Alpagas Sanzay",
    "network": "Bienvenue à la ferme",
    "address": "14 rue René III, Comté de Sanzay, 79150, Argentonnay",
    "postalCode": "79150",
    "city": "Argentonnay",
    "region": "Deux-Sèvres (79)",
    "lat": 46.961138285447,
    "lng": -0.43896460541873,
    "website": null,
    "source": "Fiches Bienvenue à la ferme fournies par Label Vanlife"
  },
  {
    "id": "bienvenue-ferme-la-renaudiere-feret",
    "name": "La Renaudière Féret",
    "network": "Bienvenue à la ferme",
    "address": "La Renaudière Féret, 50200, Saint-Sauveur-Villages",
    "postalCode": "50200",
    "city": "Saint-Sauveur-Villages",
    "region": "Manche (50)",
    "lat": 49.065881,
    "lng": -1.507591,
    "website": "https://www.larenaudiereferet.fr/",
    "source": "Fiches Bienvenue à la ferme fournies par Label Vanlife"
  },
  {
    "id": "bienvenue-ferme-la-riviere",
    "name": "LA RIVIERE",
    "network": "Bienvenue à la ferme",
    "address": "20110, Arbellara",
    "postalCode": "20110",
    "city": "Arbellara",
    "region": "Corse-du-Sud (20)",
    "lat": 41.66021,
    "lng": 8.99422,
    "website": "http://www.campingalafermelariviere.com",
    "source": "Fiches Bienvenue à la ferme fournies par Label Vanlife"
  },
  {
    "id": "bienvenue-ferme-l-abri-cotier",
    "name": "L'Abri Côtier",
    "network": "Bienvenue à la ferme",
    "address": "90 route de Sarzeau, La Vaillaisse, 56730, Saint-Gildas-de-Rhuys",
    "postalCode": "56730",
    "city": "Saint-Gildas-de-Rhuys",
    "region": "Morbihan (56)",
    "lat": 47.503911,
    "lng": -2.821901,
    "website": "http://www.abri-cotier.com",
    "source": "Fiches Bienvenue à la ferme fournies par Label Vanlife"
  },
  {
    "id": "bienvenue-ferme-l-accueil-ette-en-brenne",
    "name": "L'ACCUEIL'ETTE EN BRENNE",
    "network": "Bienvenue à la ferme",
    "address": "14 Lieu dit La Berdicherie, 36350, La Pérouille",
    "postalCode": "36350",
    "city": "La Pérouille",
    "region": "Indre (36)",
    "lat": 46.701621,
    "lng": 1.518137,
    "website": null,
    "source": "Fiches Bienvenue à la ferme fournies par Label Vanlife"
  },
  {
    "id": "bienvenue-ferme-laillon",
    "name": "Laillon",
    "network": "Bienvenue à la ferme",
    "address": "517, route de Vopillon, Laillon, 32100, Condom",
    "postalCode": "32100",
    "city": "Condom",
    "region": "Gers (32)",
    "lat": 43.936283,
    "lng": 0.356737,
    "website": "http://calaf32.free.fr/laillon/fr",
    "source": "Fiches Bienvenue à la ferme fournies par Label Vanlife"
  },
  {
    "id": "bienvenue-ferme-l-arrestadou",
    "name": "L'ARRESTADOU",
    "network": "Bienvenue à la ferme",
    "address": "545 route du Velay, 43510, Le Bouchet-Saint-Nicolas",
    "postalCode": "43510",
    "city": "Le Bouchet-Saint-Nicolas",
    "region": "Haute-Loire (43)",
    "lat": 44.891379305964,
    "lng": 3.7952731845144,
    "website": "http://www.larrestadou.fr",
    "source": "Fiches Bienvenue à la ferme fournies par Label Vanlife"
  },
  {
    "id": "bienvenue-ferme-l-azaigouat",
    "name": "L'Azaïgouat",
    "network": "Bienvenue à la ferme",
    "address": "Route du Col de Saraillé, 09320, Biert",
    "postalCode": "09320",
    "city": "Biert",
    "region": "Ariège (09)",
    "lat": 42.897169,
    "lng": 1.297761,
    "website": "http://azaigouat.waibe.fr",
    "source": "Fiches Bienvenue à la ferme fournies par Label Vanlife"
  },
  {
    "id": "bienvenue-ferme-le-bois-coutal-patrice-veysseix",
    "name": "LE BOIS COUTAL - Patrice VEYSSEIX",
    "network": "Bienvenue à la ferme",
    "address": "",
    "postalCode": "",
    "city": "Vigeois",
    "region": "Corrèze (19)",
    "lat": 45.348221615079,
    "lng": 1.5136633862305,
    "website": null,
    "source": "Fiches Bienvenue à la ferme fournies par Label Vanlife"
  },
  {
    "id": "bienvenue-ferme-le-bouquet",
    "name": "LE BOUQUET",
    "network": "Bienvenue à la ferme",
    "address": "203 route de la Canourgue, Le Bouquet 48500 Massegros Causses Gorges, 48500, Massegros Causses Gorges",
    "postalCode": "48500",
    "city": "Massegros Causses Gorges",
    "region": "Lozère (48)",
    "lat": 44.360161054927,
    "lng": 3.2302796415253,
    "website": "https://www.campingalaferme-lozere.fr",
    "source": "Fiches Bienvenue à la ferme fournies par Label Vanlife"
  },
  {
    "id": "bienvenue-ferme-le-domaine-de-royeres",
    "name": "Le Domaine de Royères",
    "network": "Bienvenue à la ferme",
    "address": "Royères, 87800, La Roche-l'Abeille",
    "postalCode": "87800",
    "city": "La Roche-l'Abeille",
    "region": "Haute-Vienne (87)",
    "lat": 45.58424,
    "lng": 1.270277,
    "website": "http://www.royeres.com",
    "source": "Fiches Bienvenue à la ferme fournies par Label Vanlife"
  },
  {
    "id": "bienvenue-ferme-le-lavoir-d-arlinde",
    "name": "Le Lavoir d'Arlinde",
    "network": "Bienvenue à la ferme",
    "address": "72, Rue de la davalade de l'église, Arlinde, 30500, Allègre-les-Fumades",
    "postalCode": "30500",
    "city": "Allègre-les-Fumades",
    "region": "Gard (30)",
    "lat": 44.1133,
    "lng": 4.1437,
    "website": null,
    "source": "Fiches Bienvenue à la ferme fournies par Label Vanlife"
  },
  {
    "id": "bienvenue-ferme-le-mandriale",
    "name": "LE MANDRIALE",
    "network": "Bienvenue à la ferme",
    "address": "Route de LOZZI - RD81, 20130, Cargèse",
    "postalCode": "20130",
    "city": "Cargèse",
    "region": "Corse-du-Sud (20)",
    "lat": 42.157863525364,
    "lng": 8.6064934721799,
    "website": "http://www.lemandriale.com",
    "source": "Fiches Bienvenue à la ferme fournies par Label Vanlife"
  },
  {
    "id": "bienvenue-ferme-le-mas-de-l-aubezon",
    "name": "Le Mas de l'Aubezon",
    "network": "Bienvenue à la ferme",
    "address": "La Place, 07260, Vernon",
    "postalCode": "07260",
    "city": "Vernon",
    "region": "Ardèche (07)",
    "lat": 44.507144,
    "lng": 4.224133,
    "website": "http://www.aubezon.fr",
    "source": "Fiches Bienvenue à la ferme fournies par Label Vanlife"
  },
  {
    "id": "bienvenue-ferme-le-massiol",
    "name": "Le Massiol",
    "network": "Bienvenue à la ferme",
    "address": "Le Massiol, 07200, Saint-Michel-de-Boulogne",
    "postalCode": "07200",
    "city": "Saint-Michel-de-Boulogne",
    "region": "Ardèche (07)",
    "lat": 44.695501533074,
    "lng": 4.4338784047546,
    "website": "http://campinglemassiol.jimdo.com",
    "source": "Fiches Bienvenue à la ferme fournies par Label Vanlife"
  },
  {
    "id": "bienvenue-ferme-le-medoc-aux-4-vents",
    "name": "LE MEDOC AUX 4 VENTS",
    "network": "Bienvenue à la ferme",
    "address": "31 Chemin du PEREY, 33590, Jau-Dignac-et-Loirac",
    "postalCode": "33590",
    "city": "Jau-Dignac-et-Loirac",
    "region": "Gironde (33)",
    "lat": 45.416883,
    "lng": -0.95035,
    "website": "https://www.lemedocaux4vents.com/",
    "source": "Fiches Bienvenue à la ferme fournies par Label Vanlife"
  },
  {
    "id": "bienvenue-ferme-le-menguen-camping-a-la-ferme",
    "name": "LE MENGUEN camping à la ferme",
    "network": "Bienvenue à la ferme",
    "address": "Le Menguen , 56370, Sarzeau",
    "postalCode": "56370",
    "city": "Sarzeau",
    "region": "Morbihan (56)",
    "lat": 47.507838132012,
    "lng": -2.7981233596802,
    "website": "http://www.camping-du-menguen.com",
    "source": "Fiches Bienvenue à la ferme fournies par Label Vanlife"
  },
  {
    "id": "bienvenue-ferme-le-potager-de-seguret",
    "name": "Le Potager de Seguret",
    "network": "Bienvenue à la ferme",
    "address": "Séguret, 58170, Savigny-Poil-Fol",
    "postalCode": "58170",
    "city": "Savigny-Poil-Fol",
    "region": "Nièvre (58)",
    "lat": 46.784061800558,
    "lng": 3.8556350324063,
    "website": null,
    "source": "Fiches Bienvenue à la ferme fournies par Label Vanlife"
  },
  {
    "id": "bienvenue-ferme-les-nes-de-vassiviere",
    "name": "Les ╢nes de Vassivière",
    "network": "Bienvenue à la ferme",
    "address": "Champseau, 87470, Peyrat-le-Château",
    "postalCode": "87470",
    "city": "Peyrat-le-Château",
    "region": "Haute-Vienne (87)",
    "lat": 45.831592926861,
    "lng": 1.7657300234714,
    "website": null,
    "source": "Fiches Bienvenue à la ferme fournies par Label Vanlife"
  },
  {
    "id": "bienvenue-ferme-les-aresquiers",
    "name": "Les Aresquiers",
    "network": "Bienvenue à la ferme",
    "address": "36 Bis route des Aresquiers, Les Aresquiers, 34110, Vic-la-Gardiole",
    "postalCode": "34110",
    "city": "Vic-la-Gardiole",
    "region": "Hérault (34)",
    "lat": 43.469787319567,
    "lng": 3.8096492551267,
    "website": "http://www.campingaresquiers.com",
    "source": "Fiches Bienvenue à la ferme fournies par Label Vanlife"
  },
  {
    "id": "bienvenue-ferme-les-attelages-de-monsacou",
    "name": "Les attelages de Monsacou",
    "network": "Bienvenue à la ferme",
    "address": "110 route de la Rauffie, Monsacou, 24520, Lamonzie-Montastruc",
    "postalCode": "24520",
    "city": "Lamonzie-Montastruc",
    "region": "Dordogne (24)",
    "lat": 44.916063,
    "lng": 0.611635,
    "website": "https://www.aulezarddore.com",
    "source": "Fiches Bienvenue à la ferme fournies par Label Vanlife"
  },
  {
    "id": "bienvenue-ferme-les-baies-sauvages",
    "name": "LES BAIES SAUVAGES",
    "network": "Bienvenue à la ferme",
    "address": "Freycenet, 43230, Saint-Georges-d'Aurac",
    "postalCode": "43230",
    "city": "Saint-Georges-d'Aurac",
    "region": "Haute-Loire (43)",
    "lat": 45.143528924289,
    "lng": 3.5840240120888,
    "website": null,
    "source": "Fiches Bienvenue à la ferme fournies par Label Vanlife"
  },
  {
    "id": "bienvenue-ferme-les-brugues",
    "name": "Les Brugues",
    "network": "Bienvenue à la ferme",
    "address": "n° 2 Les Brugues, 11270, Fanjeaux",
    "postalCode": "11270",
    "city": "Fanjeaux",
    "region": "Aude (11)",
    "lat": 43.165487818273,
    "lng": 2.0279663796828,
    "website": "http://www.lesbrugues-camping.com",
    "source": "Fiches Bienvenue à la ferme fournies par Label Vanlife"
  },
  {
    "id": "bienvenue-ferme-les-chadenedes",
    "name": "Les Chadenèdes",
    "network": "Bienvenue à la ferme",
    "address": "Les Chadenèdes, 07120, Grospierres",
    "postalCode": "07120",
    "city": "Grospierres",
    "region": "Ardèche (07)",
    "lat": 44.399227,
    "lng": 4.290034,
    "website": "https://www.camping-chadenedes.com/",
    "source": "Fiches Bienvenue à la ferme fournies par Label Vanlife"
  },
  {
    "id": "bienvenue-ferme-les-chalets-de-serre-poncon",
    "name": "Les chalets de Serre Poncon",
    "network": "Bienvenue à la ferme",
    "address": "Chemin de Crots, 05200, Baratier",
    "postalCode": "05200",
    "city": "Baratier",
    "region": "Hautes-Alpes (05)",
    "lat": 44.534695623263,
    "lng": 6.4977264404297,
    "website": "http://www.leschaletsdeserreponcon.fr",
    "source": "Fiches Bienvenue à la ferme fournies par Label Vanlife"
  },
  {
    "id": "bienvenue-ferme-les-cypres",
    "name": "LES CYPRES",
    "network": "Bienvenue à la ferme",
    "address": "190 route de FONT DE BARRAL, 26770, Saint-Pantaléon-les-Vignes",
    "postalCode": "26770",
    "city": "Saint-Pantaléon-les-Vignes",
    "region": "Drôme (26)",
    "lat": 44.397526,
    "lng": 5.060995,
    "website": "http://lescypres-camping.com",
    "source": "Fiches Bienvenue à la ferme fournies par Label Vanlife"
  },
  {
    "id": "bienvenue-ferme-les-jardins-de-koantiz",
    "name": "Les Jardins de Koantiz",
    "network": "Bienvenue à la ferme",
    "address": "1 allée des Goisbeaux, 44290, Massérac",
    "postalCode": "44290",
    "city": "Massérac",
    "region": "Loire-Atlantique (44)",
    "lat": 47.669832,
    "lng": -1.907277,
    "website": "https://www.koantiz-nature.fr",
    "source": "Fiches Bienvenue à la ferme fournies par Label Vanlife"
  },
  {
    "id": "bienvenue-ferme-les-jardins-d-ossau",
    "name": "Les Jardins d'Ossau",
    "network": "Bienvenue à la ferme",
    "address": "2 Chemin de Départ, 64260, Buzy",
    "postalCode": "64260",
    "city": "Buzy",
    "region": "Pyrénées-Atlantiques (64)",
    "lat": 43.151501,
    "lng": -0.444972,
    "website": null,
    "source": "Fiches Bienvenue à la ferme fournies par Label Vanlife"
  },
  {
    "id": "bienvenue-ferme-les-p-tits-equins",
    "name": "Les P'tits Equins",
    "network": "Bienvenue à la ferme",
    "address": "Les P'tits Equins, Route de Carennac, 46500, Miers",
    "postalCode": "46500",
    "city": "Miers",
    "region": "Lot (46)",
    "lat": 44.866576345623,
    "lng": 1.7043113568798,
    "website": null,
    "source": "Fiches Bienvenue à la ferme fournies par Label Vanlife"
  },
  {
    "id": "bienvenue-ferme-l-escourby",
    "name": "L'Escourby",
    "network": "Bienvenue à la ferme",
    "address": "L'Escourby - Vernon, 07260, Rosières",
    "postalCode": "07260",
    "city": "Rosières",
    "region": "Ardèche (07)",
    "lat": 44.505626762073,
    "lng": 4.2344999313354,
    "website": "http://www.camping-escourby-ardeche.com",
    "source": "Fiches Bienvenue à la ferme fournies par Label Vanlife"
  },
  {
    "id": "bienvenue-ferme-lou-pebre-d-ail",
    "name": "Lou Pebre d'Ail",
    "network": "Bienvenue à la ferme",
    "address": "Lou Pebre d'Ail, Les Marquants, 04230, Mallefougasse-Augès",
    "postalCode": "04230",
    "city": "Mallefougasse-Augès",
    "region": "Alpes-de-Haute-Provence (04)",
    "lat": 44.062247144762,
    "lng": 5.9014740586281,
    "website": "http://www.campingloupebredail-04.fr",
    "source": "Fiches Bienvenue à la ferme fournies par Label Vanlife"
  },
  {
    "id": "bienvenue-ferme-lou-tuquet",
    "name": "Lou Tuquet",
    "network": "Bienvenue à la ferme",
    "address": "353 route du camping, Le Tuquet du Maine, 24500, Fonroque",
    "postalCode": "24500",
    "city": "Fonroque",
    "region": "Dordogne (24)",
    "lat": 44.703100516903,
    "lng": 0.39913415908813,
    "website": "http://www.campingloutuquet.fr",
    "source": "Fiches Bienvenue à la ferme fournies par Label Vanlife"
  },
  {
    "id": "bienvenue-ferme-maeva-i-ouitchambo",
    "name": "Maëva i Ouitchambo",
    "network": "Bienvenue à la ferme",
    "address": "Ouitchambo - BP 251 98812 BOULOUPARIS, 98812, Bouloupari",
    "postalCode": "98812",
    "city": "Bouloupari",
    "region": "Nouvelle-Calédonie (98)",
    "lat": -21.81784,
    "lng": 165.99007,
    "website": "https://www.facebook.com/maevaiouitchambo",
    "source": "Fiches Bienvenue à la ferme fournies par Label Vanlife"
  },
  {
    "id": "bienvenue-ferme-maison-saint-lo",
    "name": "Maison Saint-Lô",
    "network": "Bienvenue à la ferme",
    "address": "La Champagne, 50490, Saint-Sauveur-Villages",
    "postalCode": "50490",
    "city": "Saint-Sauveur-Villages",
    "region": "Manche (50)",
    "lat": 49.153362612589,
    "lng": -1.4031600952148,
    "website": "http://www.maisonsaintlo.fr",
    "source": "Fiches Bienvenue à la ferme fournies par Label Vanlife"
  },
  {
    "id": "bienvenue-ferme-marie-a-la-ferme",
    "name": "Marie à la ferme",
    "network": "Bienvenue à la ferme",
    "address": "Le Méry, 03450, Chouvigny",
    "postalCode": "03450",
    "city": "Chouvigny",
    "region": "Allier (03)",
    "lat": 46.138993521979,
    "lng": 2.9841012957331,
    "website": "https://www.facebook.com/mariealaferme/",
    "source": "Fiches Bienvenue à la ferme fournies par Label Vanlife"
  },
  {
    "id": "bienvenue-ferme-mas-carriere",
    "name": "Mas Carrière",
    "network": "Bienvenue à la ferme",
    "address": "Le Prat , 30570, Val-d'Aigoual",
    "postalCode": "30570",
    "city": "Val-d'Aigoual",
    "region": "Gard (30)",
    "lat": 44.116835,
    "lng": 3.550976,
    "website": "http://www.camping-mas-carriere.com",
    "source": "Fiches Bienvenue à la ferme fournies par Label Vanlife"
  },
  {
    "id": "bienvenue-ferme-mas-de-saragosse",
    "name": "Mas de Saragosse",
    "network": "Bienvenue à la ferme",
    "address": "Route de Thuir, 66170, Millas",
    "postalCode": "66170",
    "city": "Millas",
    "region": "Pyrénées-Orientales (66)",
    "lat": 42.682511113427,
    "lng": 2.7039070118917,
    "website": null,
    "source": "Fiches Bienvenue à la ferme fournies par Label Vanlife"
  },
  {
    "id": "bienvenue-ferme-neouty-decouvertes",
    "name": "Néouty Découvertes",
    "network": "Bienvenue à la ferme",
    "address": "Tribu de Tchamba, Ponérihouen, 98823, Ponerihouen",
    "postalCode": "98823",
    "city": "Ponerihouen",
    "region": "Nouvelle-Calédonie (98)",
    "lat": -21.02338,
    "lng": 165.3798,
    "website": "https://www.facebook.com/profile.php?id=100070148329369",
    "source": "Fiches Bienvenue à la ferme fournies par Label Vanlife"
  },
  {
    "id": "bienvenue-ferme-parc-emeraude",
    "name": "Parc Emeraude",
    "network": "Bienvenue à la ferme",
    "address": "28 bis , le Hazay, 22240, Plurien",
    "postalCode": "22240",
    "city": "Plurien",
    "region": "Côtes-d'Armor (22)",
    "lat": 48.618232,
    "lng": -2.384769,
    "website": "https://www.parcemeraude.com",
    "source": "Fiches Bienvenue à la ferme fournies par Label Vanlife"
  },
  {
    "id": "bienvenue-ferme-parc-residentiel-fruitier",
    "name": "Parc Résidentiel Fruitier",
    "network": "Bienvenue à la ferme",
    "address": "Les Cabirots, 32600, L'Isle-Jourdain",
    "postalCode": "32600",
    "city": "L'Isle-Jourdain",
    "region": "Gers (32)",
    "lat": 43.591854,
    "lng": 1.086614,
    "website": null,
    "source": "Fiches Bienvenue à la ferme fournies par Label Vanlife"
  },
  {
    "id": "bienvenue-ferme-pero-longo",
    "name": "PERO LONGO",
    "network": "Bienvenue à la ferme",
    "address": "Navara Route de Bonifaccio, 20100, Sartène",
    "postalCode": "20100",
    "city": "Sartène",
    "region": "Corse-du-Sud (20)",
    "lat": 41.5343,
    "lng": 8.96235,
    "website": "http://www.perolongo.com",
    "source": "Fiches Bienvenue à la ferme fournies par Label Vanlife"
  },
  {
    "id": "bienvenue-ferme-petra-machja",
    "name": "PETRA MACHJA",
    "network": "Bienvenue à la ferme",
    "address": "PETRA MACHJA, 2 km avant le hameau Reginu sur la D113, 20226, Belgodère",
    "postalCode": "20226",
    "city": "Belgodère",
    "region": "Haute-Corse (20)",
    "lat": 42.60516,
    "lng": 8.97754,
    "website": "https://campingincorsica.info/fr/camping/balagne/camping-a-la-ferme-pietra-machja-chez-rose/",
    "source": "Fiches Bienvenue à la ferme fournies par Label Vanlife"
  },
  {
    "id": "bienvenue-ferme-pocquereux-randonnees",
    "name": "Pocquereux Randonnées",
    "network": "Bienvenue à la ferme",
    "address": "BP 36, Pocquereux, 98880, La Foa",
    "postalCode": "98880",
    "city": "La Foa",
    "region": "Nouvelle-Calédonie (98)",
    "lat": -21.750332202798,
    "lng": 165.92308044434,
    "website": "https://www.facebook.com/pocquereux.randonnees/?locale=fr_FR",
    "source": "Fiches Bienvenue à la ferme fournies par Label Vanlife"
  },
  {
    "id": "bienvenue-ferme-spring-garden",
    "name": "Spring Garden",
    "network": "Bienvenue à la ferme",
    "address": "Chemin du Prigoul suite chemin de la gare, Teste d'Aze, 34390, Colombières-sur-Orb",
    "postalCode": "34390",
    "city": "Colombières-sur-Orb",
    "region": "Hérault (34)",
    "lat": 43.574158761221,
    "lng": 3.0060228433285,
    "website": "http://springarden.fr",
    "source": "Fiches Bienvenue à la ferme fournies par Label Vanlife"
  },
  {
    "id": "bienvenue-ferme-stephanie-villa-lou-mas-del-miech",
    "name": "STEPHANIE VILLA _LOU MAS DEL MIECH_",
    "network": "Bienvenue à la ferme",
    "address": "MAS DEL MIETCH, 48370, Saint-Germain-de-Calberte",
    "postalCode": "48370",
    "city": "Saint-Germain-de-Calberte",
    "region": "Lozère (48)",
    "lat": 44.196108,
    "lng": 3.800328,
    "website": "https://www.camping-mas-del-miech.com/",
    "source": "Fiches Bienvenue à la ferme fournies par Label Vanlife"
  },
  {
    "id": "bienvenue-ferme-u-cavaddu-senza-nome",
    "name": "U CAVADDU SENZA NOME",
    "network": "Bienvenue à la ferme",
    "address": "Ranfone - Ortolo, 20100, Sartène",
    "postalCode": "20100",
    "city": "Sartène",
    "region": "Corse-du-Sud (20)",
    "lat": 41.591047,
    "lng": 8.946615,
    "website": "http://www.ucavaddu.fr",
    "source": "Fiches Bienvenue à la ferme fournies par Label Vanlife"
  },
  {
    "id": "bienvenue-ferme-un-jour-une-ferme",
    "name": "Un jour une ferme",
    "network": "Bienvenue à la ferme",
    "address": "En Galinier, 81390, Briatexte",
    "postalCode": "81390",
    "city": "Briatexte",
    "region": "Tarn (81)",
    "lat": 43.737041905752,
    "lng": 1.9362332600708,
    "website": "https://www.vacances-tarn.com/gites-et-locations-de-vacances/hebergement/fiche-hebergement_G2005/",
    "source": "Fiches Bienvenue à la ferme fournies par Label Vanlife"
  },
  {
    "id": "bienvenue-ferme-verdon-yourte",
    "name": "Verdon Yourte",
    "network": "Bienvenue à la ferme",
    "address": "Le Moustier, 04170, Angles",
    "postalCode": "04170",
    "city": "Angles",
    "region": "Alpes-de-Haute-Provence (04)",
    "lat": 43.943753,
    "lng": 6.557432,
    "website": "http://www.verdonyourte.com",
    "source": "Fiches Bienvenue à la ferme fournies par Label Vanlife"
  },
  {
    "id": "papa-rtenaires-camping-bois-toiles",
    "name": "Camping Bois & Toilés",
    "network": "Papa’rtenaires",
    "address": "1. Route de Sablons - 26140 Saint Rambert D'Albon",
    "postalCode": "26140",
    "city": "D'Albon",
    "region": "",
    "lat": 45.2997545,
    "lng": 4.8085459,
    "website": "https://www.bois-et-toiles.com/fr/",
    "memberOffer": "10% +",
    "source": "Guide Papa’rtenaires juillet 2026, page 6"
  },
  {
    "id": "papa-rtenaires-camping-de-lile-chambod",
    "name": "Camping de l’ile Chambod",
    "network": "Papa’rtenaires",
    "address": "3232 Route du port 01250 HAUTECOURT ROMANECHE",
    "postalCode": "01250",
    "city": "ROMANECHE",
    "region": "",
    "lat": 46.1278226,
    "lng": 5.4281023,
    "website": "www.campingilechambod.com",
    "memberOffer": "20€ (forfait 2 pers.) Hors juil-aout",
    "source": "Guide Papa’rtenaires juillet 2026, page 7"
  },
  {
    "id": "papa-rtenaires-camping-de-mars",
    "name": "Camping de Mars",
    "network": "Papa’rtenaires",
    "address": "444 route du Camping - 42123 CORDELLE",
    "postalCode": "42123",
    "city": "CORDELLE",
    "region": "",
    "lat": 45.9158028,
    "lng": 4.0613012,
    "website": "https://www.camping-de-mars.com",
    "memberOffer": "20% Basse saison 10% Haute saison (Tarif public)",
    "source": "Guide Papa’rtenaires juillet 2026, page 8"
  },
  {
    "id": "papa-rtenaires-camping-gouffre-de-la-croix",
    "name": "Camping Gouffre de la Croix",
    "network": "Papa’rtenaires",
    "address": "1050 route du Pont de Vezor- 38680 Châtelus",
    "postalCode": "38680",
    "city": "Châtelus",
    "region": "",
    "lat": 45.0638656,
    "lng": 5.3960172,
    "website": "https://www.camping-vercors.com",
    "memberOffer": "10% (Hors juillet-Aout) Tournée du patron (Juillet-Aout)",
    "source": "Guide Papa’rtenaires juillet 2026, page 9"
  },
  {
    "id": "papa-rtenaires-camping-le-veronne",
    "name": "Camping Le Veronne",
    "network": "Papa’rtenaires",
    "address": "plaine 26270 SAULCE SUR RHONE",
    "postalCode": "26270",
    "city": "RHONE",
    "region": "",
    "lat": 44.7054886,
    "lng": 4.8095046,
    "website": "https://www.campingleveronne.com",
    "memberOffer": "15% sur forfait emplacement Accueil",
    "source": "Guide Papa’rtenaires juillet 2026, page 10"
  },
  {
    "id": "papa-rtenaires-camping-le-parc-du-chateau",
    "name": "Camping Le parc du Château",
    "network": "Papa’rtenaires",
    "address": "Château - 56350 Rieux",
    "postalCode": "56350",
    "city": "Rieux",
    "region": "",
    "lat": 47.5979385,
    "lng": -2.1013717,
    "website": null,
    "memberOffer": "10% +",
    "source": "Guide Papa’rtenaires juillet 2026, page 13"
  },
  {
    "id": "papa-rtenaires-camping-de-gouarec",
    "name": "Camping de Gouarec",
    "network": "Papa’rtenaires",
    "address": "Le bout du pont – 22570 Plélauff/Gouarec",
    "postalCode": "22570",
    "city": "Plélauff/Gouarec",
    "region": "",
    "lat": 48.225184,
    "lng": -3.180776,
    "website": "http://www.campingdegouarec.com",
    "memberOffer": "10% +",
    "source": "Guide Papa’rtenaires juillet 2026, page 14"
  },
  {
    "id": "papa-rtenaires-camping-le-freche-a-lane",
    "name": "Camping le frêche à l’Ane",
    "network": "Papa’rtenaires",
    "address": "6 rue Champ St Paul – 22550 Pléboulle",
    "postalCode": "22550",
    "city": "Pléboulle",
    "region": "",
    "lat": 48.6077926,
    "lng": -2.3355054,
    "website": null,
    "memberOffer": "10% Hors Juil-Aout",
    "source": "Guide Papa’rtenaires juillet 2026, page 15"
  },
  {
    "id": "papa-rtenaires-camping-les-2-rivieres",
    "name": "Camping les 2 rivières",
    "network": "Papa’rtenaires",
    "address": "Lieudit le Pré Bouché 71400 La Celle en Morvan",
    "postalCode": "71400",
    "city": "Morvan",
    "region": "",
    "lat": 47.0127041,
    "lng": 4.1912877,
    "website": null,
    "memberOffer": "5% Hors location matériel",
    "source": "Guide Papa’rtenaires juillet 2026, page 19"
  },
  {
    "id": "papa-rtenaires-camping-de-gracay",
    "name": "Camping de Graçay",
    "network": "Papa’rtenaires",
    "address": "Camping de Graçay 🌟🌟 Chemin de Trompe Souris, 18310 Graçay",
    "postalCode": "18310",
    "city": "Graçay",
    "region": "",
    "lat": 47.1342964,
    "lng": 1.8514599,
    "website": "https://www.camping-berry.com",
    "memberOffer": "10%",
    "source": "Guide Papa’rtenaires juillet 2026, page 23"
  },
  {
    "id": "papa-rtenaires-camping-la-fritillaire",
    "name": "Camping La fritillaire",
    "network": "Papa’rtenaires",
    "address": "6 rue du camping - 37420 SAVIGNY EN VERON",
    "postalCode": "37420",
    "city": "VERON",
    "region": "",
    "lat": 47.2000665,
    "lng": 0.1432621,
    "website": "https://www.campinglafritillaire.com",
    "memberOffer": "10% * * Basse et moyenne saison : 10% de remise sur les emplacements et locatifs dès 1 nuit / Haute saison du 11/07 au 21/08 : 10% de remise à partir de 7 nuits sur les emplacements et locatifs",
    "source": "Guide Papa’rtenaires juillet 2026, page 24"
  },
  {
    "id": "papa-rtenaires-camping-lile-aux-mille-charmes",
    "name": "Camping L’ile aux mille Charmes",
    "network": "Papa’rtenaires",
    "address": "20 rue de l'écluse 88130 Charmes",
    "postalCode": "88130",
    "city": "Charmes",
    "region": "",
    "lat": 48.3762584,
    "lng": 6.2925689,
    "website": "https://www.lile-aux-mille-charmes.fr",
    "memberOffer": "20% animaux gratuits (2 max) enfants -12ans gratuit (3 max)",
    "source": "Guide Papa’rtenaires juillet 2026, page 27"
  },
  {
    "id": "papa-rtenaires-camping-la-fontaine-des-clercs",
    "name": "Camping La fontaine des clercs",
    "network": "Papa’rtenaires",
    "address": "1 rue de l'église, 62170 MONTREUIL SUR MER",
    "postalCode": "62170",
    "city": "MER",
    "region": "",
    "lat": 50.4879602,
    "lng": 1.7430532,
    "website": null,
    "memberOffer": "Forfait 20,90€ (1 emplacement, 1 nuit, 2 personnes, 1 chien) hors taxe séjour",
    "source": "Guide Papa’rtenaires juillet 2026, page 30"
  },
  {
    "id": "papa-rtenaires-camping-dauberoche",
    "name": "Camping d’Auberoche",
    "network": "Papa’rtenaires",
    "address": "100 Route du Roc- 24640 BASSILLAC ET AUBEROCHE",
    "postalCode": "24640",
    "city": "AUBEROCHE",
    "region": "",
    "lat": 45.209563,
    "lng": 0.898853,
    "website": "https://campingdauberoche.fr",
    "memberOffer": "10%",
    "source": "Guide Papa’rtenaires juillet 2026, page 33"
  },
  {
    "id": "papa-rtenaires-camping-nature-et-vezere",
    "name": "Camping Nature et Vézère",
    "network": "Papa’rtenaires",
    "address": "18 route de Treignac - 19260 PEYRISSAC",
    "postalCode": "19260",
    "city": "PEYRISSAC",
    "region": "",
    "lat": 45.501388,
    "lng": 1.704331,
    "website": "https://campingnatureetvezere.fr/",
    "memberOffer": "10% +",
    "source": "Guide Papa’rtenaires juillet 2026, page 34"
  },
  {
    "id": "papa-rtenaires-camping-chez-gendron",
    "name": "Camping Chez Gendron",
    "network": "Papa’rtenaires",
    "address": "Camping Chez Gendron 🌟🌟🌟 2, CHEZ JANDRON - 33820 SAINT-PALAIS",
    "postalCode": "33820",
    "city": "SAINT-PALAIS",
    "region": "",
    "lat": 45.314192,
    "lng": -0.603218,
    "website": "https://www.chezgendron.com",
    "memberOffer": "10%",
    "source": "Guide Papa’rtenaires juillet 2026, page 35"
  },
  {
    "id": "papa-rtenaires-camping-chateau-le-verdoyer",
    "name": "Camping Château Le Verdoyer",
    "network": "Papa’rtenaires",
    "address": "Château le Verdoyer - 24470 Champs Romain",
    "postalCode": "24470",
    "city": "Romain",
    "region": "",
    "lat": 45.5518531,
    "lng": 0.7953505,
    "website": "https://www.verdoyer.fr",
    "memberOffer": "10% +",
    "source": "Guide Papa’rtenaires juillet 2026, page 36"
  },
  {
    "id": "papa-rtenaires-camping-le-plein-air-neuvicois",
    "name": "Camping Le Plein Air Neuvicois",
    "network": "Papa’rtenaires",
    "address": "Camping Le Plein Air Neuvicois 🌟🌟🌟 Avenue de Planèze - 24190 Neuvic sur l'isle",
    "postalCode": "24190",
    "city": "l'isle",
    "region": "",
    "lat": 45.1073133,
    "lng": 0.4696893,
    "website": null,
    "memberOffer": "10%",
    "source": "Guide Papa’rtenaires juillet 2026, page 37"
  },
  {
    "id": "papa-rtenaires-camping-le-prelong",
    "name": "Camping Le Prélong",
    "network": "Papa’rtenaires",
    "address": "115 Route de L’Ileau – L’Ileau – 17310 St Pierre d’Oléron",
    "postalCode": "17310",
    "city": "d’Oléron",
    "region": "",
    "lat": 45.9490075,
    "lng": -1.3663049,
    "website": "https://www.campings.online/les-campings/camping-",
    "memberOffer": "10% 115 Route de L’Ileau – L’Ileau – 17310 St Pierre d’Oléron  06.47.79.17.00 - 05.46.75.05.30 https://www.campings.online/les-campings/camping- le-prelong",
    "source": "Guide Papa’rtenaires juillet 2026, page 39"
  },
  {
    "id": "papa-rtenaires-camping-la-venise-verte",
    "name": "Camping La Venise Verte",
    "network": "Papa’rtenaires",
    "address": "178 route des Bords de Sèvre - 79510 Coulon",
    "postalCode": "79510",
    "city": "Coulon",
    "region": "",
    "lat": 46.314792,
    "lng": -0.6087318,
    "website": "www.camping-laveniseverte.fr",
    "memberOffer": "10% Hors juillet Aout 178 route des Bords de Sèvre - 79510 Coulon  05 49 35 90 36 www.camping-laveniseverte.fr",
    "source": "Guide Papa’rtenaires juillet 2026, page 40"
  },
  {
    "id": "papa-rtenaires-camping-le-maine-blanc",
    "name": "Camping Le Maine Blanc",
    "network": "Papa’rtenaires",
    "address": "Lieudit Le Maine Blanc 33920 SAINT CHRISTOLY DE BLAYE",
    "postalCode": "33920",
    "city": "BLAYE",
    "region": "",
    "lat": 45.1399062,
    "lng": -0.4866744,
    "website": "https://www.lemaineblanc.fr/accueil/",
    "memberOffer": "10% + Chauffés en hiver",
    "source": "Guide Papa’rtenaires juillet 2026, page 41"
  },
  {
    "id": "papa-rtenaires-camping-associatif-anac",
    "name": "Camping associatif ANAC",
    "network": "Papa’rtenaires",
    "address": "1481 route de l'estang 24450 LA COQUILLE",
    "postalCode": "24450",
    "city": "COQUILLE",
    "region": "",
    "lat": 45.5522563,
    "lng": 0.9518277,
    "website": null,
    "memberOffer": "5% + cotisation association offerte",
    "source": "Guide Papa’rtenaires juillet 2026, page 42"
  },
  {
    "id": "papa-rtenaires-camping-du-parc",
    "name": "Camping du parc",
    "network": "Papa’rtenaires",
    "address": "9 allée William Jonka - 17750 Etaules",
    "postalCode": "17750",
    "city": "Etaules",
    "region": "",
    "lat": 45.732725,
    "lng": -1.10303,
    "website": "www.campingduparc17.com",
    "memberOffer": "10% A partir de 2 nuits",
    "source": "Guide Papa’rtenaires juillet 2026, page 43"
  },
  {
    "id": "papa-rtenaires-camping-de-la-bucherie",
    "name": "Camping de la Bucherie",
    "network": "Papa’rtenaires",
    "address": "203 route de la Peyrière - 24470 Saint Saud Lacoussière",
    "postalCode": "24470",
    "city": "Lacoussière",
    "region": "",
    "lat": 45.5661465,
    "lng": 0.8378293,
    "website": "https://campingdelabucherie.fr",
    "memberOffer": "15% A partir de 2 nuits (basse saison) 3 nuits (Haute saison)",
    "source": "Guide Papa’rtenaires juillet 2026, page 44"
  },
  {
    "id": "papa-rtenaires-camping-le-sorbier",
    "name": "Camping Le Sorbier",
    "network": "Papa’rtenaires",
    "address": "828 chemin de la fontaine - 24290 montignac lascaux",
    "postalCode": "24290",
    "city": "lascaux",
    "region": "",
    "lat": 45.0458699,
    "lng": 1.1504773,
    "website": null,
    "memberOffer": "10% (Hors juillet & Aout)",
    "source": "Guide Papa’rtenaires juillet 2026, page 47"
  },
  {
    "id": "papa-rtenaires-camping-les-catalpas",
    "name": "Camping Les Catalpas",
    "network": "Papa’rtenaires",
    "address": "1335 Chemin de Gaillardel, 47500 FUMEL",
    "postalCode": "47500",
    "city": "FUMEL",
    "region": "",
    "lat": 44.488289,
    "lng": 0.9997656,
    "website": "https://www.les-catalpas.com/",
    "memberOffer": "6% Juillet/Aout 12% les autres mois",
    "source": "Guide Papa’rtenaires juillet 2026, page 48"
  },
  {
    "id": "papa-rtenaires-camping-le-valenty",
    "name": "Camping Le Valenty",
    "network": "Papa’rtenaires",
    "address": "Plaine de Valenty - 46700 Soturac",
    "postalCode": "46700",
    "city": "Soturac",
    "region": "",
    "lat": 44.4889813,
    "lng": 1.018408,
    "website": "https://www.campinglevalenty.fr",
    "memberOffer": "La tournée du patron",
    "source": "Guide Papa’rtenaires juillet 2026, page 52"
  },
  {
    "id": "papa-rtenaires-camping-pre-fixe",
    "name": "Camping Pré fixe",
    "network": "Papa’rtenaires",
    "address": "175 Rue de l’abbé Duthil- 31420 Cassagnabère-Tournas",
    "postalCode": "31420",
    "city": "Cassagnabère-Tournas",
    "region": "",
    "lat": 43.226741,
    "lng": 0.788764,
    "website": "www.camping-pre-fixe.com",
    "memberOffer": "La tournée du patron",
    "source": "Guide Papa’rtenaires juillet 2026, page 53"
  },
  {
    "id": "papa-rtenaires-camping-nature-le-pichadou-z-13-rue-du-cers-11330-salza-07-84-84-83-41-https-www-facebook-com-camping-nature-le-pichadou-102427315823843",
    "name": "Camping Nature le Pichadou z 13 Rue du Cers – 11330 Salza  07 84 84 83 41 https://www.facebook.com/Camping-nature-Le-Pichadou- 102427315823843/",
    "network": "Papa’rtenaires",
    "address": "13 Rue du Cers – 11330 Salza",
    "postalCode": "11330",
    "city": "Salza",
    "region": "",
    "lat": 42.9841924,
    "lng": 2.4970408,
    "website": "https://www.facebook.com/Camping-nature-Le-Pichadou-",
    "memberOffer": "La tournée du patron",
    "source": "Guide Papa’rtenaires juillet 2026, page 54"
  },
  {
    "id": "papa-rtenaires-camping-loliveraie",
    "name": "Camping L’Oliveraie",
    "network": "Papa’rtenaires",
    "address": "1600 chemin de Bédarieux - 34480 LAURENS",
    "postalCode": "34480",
    "city": "LAURENS",
    "region": "",
    "lat": 43.5370793,
    "lng": 3.1865645,
    "website": "https://www.oliveraie.com",
    "memberOffer": "10%",
    "source": "Guide Papa’rtenaires juillet 2026, page 55"
  },
  {
    "id": "papa-rtenaires-camping-les-terrasses-du-jaur",
    "name": "Camping Les Terrasses du Jaur",
    "network": "Papa’rtenaires",
    "address": "5126F Rue basse – 34390 PREMIAN",
    "postalCode": "34390",
    "city": "PREMIAN",
    "region": "",
    "lat": 43.522274,
    "lng": 2.8302008,
    "website": null,
    "memberOffer": "10%",
    "source": "Guide Papa’rtenaires juillet 2026, page 56"
  },
  {
    "id": "papa-rtenaires-camping-le-moulin-du-bel-air",
    "name": "Camping Le Moulin du Bel Air",
    "network": "Papa’rtenaires",
    "address": "Claux de Bouyssole 46310 Saint Germain du Bel-Air",
    "postalCode": "46310",
    "city": "Bel-Air",
    "region": "",
    "lat": 44.6493368,
    "lng": 1.4350603,
    "website": null,
    "memberOffer": "1 bouteille (à partir de 2 nuits)",
    "source": "Guide Papa’rtenaires juillet 2026, page 57"
  },
  {
    "id": "papa-rtenaires-camping-les-auzerals",
    "name": "Camping Les Auzerals",
    "network": "Papa’rtenaires",
    "address": "Camping Les Auzerals 🌟🌟 Route De Grazac- 81800 RABASTENS",
    "postalCode": "81800",
    "city": "RABASTENS",
    "region": "",
    "lat": 43.8317255,
    "lng": 1.6966277,
    "website": "https://www.auzerals.fr",
    "memberOffer": "15% sur tarif emplacement nu",
    "source": "Guide Papa’rtenaires juillet 2026, page 58"
  },
  {
    "id": "papa-rtenaires-camping-du-loup",
    "name": "Camping du Loup",
    "network": "Papa’rtenaires",
    "address": "Camping du Loup 🌟🌟 Route de la Forêt -65100 LOURDES",
    "postalCode": "65100",
    "city": "LOURDES",
    "region": "",
    "lat": 43.097647,
    "lng": -0.069963,
    "website": "http://www.camping-du-loup-lourdes.com/",
    "memberOffer": "10% hors taxe séjour + animaux gratuit",
    "source": "Guide Papa’rtenaires juillet 2026, page 59"
  },
  {
    "id": "papa-rtenaires-le-domaine-du-castex",
    "name": "Le Domaine du Castex",
    "network": "Papa’rtenaires",
    "address": "Le Domaine du Castex 🌟🌟🌟 32290 AIGNAN",
    "postalCode": "32290",
    "city": "AIGNAN",
    "region": "",
    "lat": 43.6919208,
    "lng": 0.0745635,
    "website": "https://www.domaine-castex.com/",
    "memberOffer": "10% (3 nuits mini) Emplacements ou logements (hors électricité) Hébergements & emplacements : 35 emplacements nus - 15 locatifs - 5 chambres pour courts séjours",
    "source": "Guide Papa’rtenaires juillet 2026, page 60"
  },
  {
    "id": "papa-rtenaires-camping-la-plage",
    "name": "Camping La Plage",
    "network": "Papa’rtenaires",
    "address": "85 Route du Courau 30630 Saint André de Roquepertuis",
    "postalCode": "30630",
    "city": "Roquepertuis",
    "region": "",
    "lat": 44.2459392,
    "lng": 4.4507109,
    "website": "https://www.campinglaplage-gard.com",
    "memberOffer": "10% Hébergements & emplacements : 75 emplacements nus - 5 locatifs",
    "source": "Guide Papa’rtenaires juillet 2026, page 61"
  },
  {
    "id": "papa-rtenaires-camping-lou-treillat",
    "name": "Camping Lou Treillat",
    "network": "Papa’rtenaires",
    "address": "1 route des Cambous 48110 Sainte Croix Vallée Française",
    "postalCode": "48110",
    "city": "Française",
    "region": "",
    "lat": 44.178491,
    "lng": 3.751533,
    "website": "https://www.campingloutreillat.com",
    "memberOffer": "10% (mai, juin et septembre) Hébergements & emplacements : 18 emplacements nus - 3 locatifs",
    "source": "Guide Papa’rtenaires juillet 2026, page 62"
  },
  {
    "id": "papa-rtenaires-camping-arc-en-ciel",
    "name": "Camping Arc-en-ciel",
    "network": "Papa’rtenaires",
    "address": "50 Avenue Henri Malacrida - 13100 Aix-en-Provence",
    "postalCode": "13100",
    "city": "Aix-en-Provence",
    "region": "",
    "lat": 43.512224,
    "lng": 5.4715826,
    "website": "https://campingarcenciel.com/",
    "memberOffer": "5% dès 2 nuits",
    "source": "Guide Papa’rtenaires juillet 2026, page 65"
  },
  {
    "id": "papa-rtenaires-camping-le-marais-sauvage",
    "name": "Camping Le Marais sauvage",
    "network": "Papa’rtenaires",
    "address": "12, Route de la Sèvre - 85420 Le Mazeau",
    "postalCode": "85420",
    "city": "Mazeau",
    "region": "",
    "lat": 46.3297805,
    "lng": -0.6743517,
    "website": "www.camping-le-marais-sauvage.fr",
    "memberOffer": "10%",
    "source": "Guide Papa’rtenaires juillet 2026, page 68"
  }
]
